id,name,number,lat,lon,lines
8220DB000002,Parnell Square West,2,53.3522443611407,-6.26372321891882,"['38', '38a', '38b', '38d', '46a', '46e']"
8220DB000003,Parnell Square West,3,53.3523085514349,-6.26381074216821,"['120', '122']"
8220DB000004,Parnell Square West,4,53.3525745131874,-6.26417548603793,"['7', '7a', '7b', '7d', '9']"
8220DB000006,Parnell Square West,6,53.352749335707,-6.26445380396429,"['155', '4']"
8220DB000007,Parnell Square West,7,53.3528409105808,-6.26457026121744,"['13', '140', '40', '40b', '40d']"
8220DB000008,Parnell Square West,8,53.3532722714846,-6.26518367657395,['16']
8220DB000010,Parnell Square West,10,53.3533921036497,-6.26538912389949,"['1', '11', '44']"
8220DB000011,St Joseph's Parade,11,53.3568152335319,-6.26467919507521,"['13', '40', '40b', '40d']"
8220DB000012,Upper Dorset Street,12,53.3571075162046,-6.26438186733525,"['1', '11', '122', '16', '44']"
8220DB000014,Dorset Street Lower,14,53.3585312378782,-6.26277650570866,"['1', '11', '122', '13', '16', '40', '40b', '40d', '44']"
8220DB000015,Innisfallen Parade,15,53.3602667075989,-6.26097804267247,"['1', '11', '13', '16', '33', '33e', '40', '40b', '40d', '41', '41b', '41c', '41d', '44']"
8220DB000016,Nephin Road Park,16,53.3663915571432,-6.30561418352733,['122']
8220DB000017,Drumcondra Rail Stn,17,53.3630783243804,-6.25839928847829,"['1', '11', '13', '16', '33', '33e', '41', '41b', '41c', '41d', '44']"
8220DB000018,Dargle Road,18,53.3658559259191,-6.2559568206783,"['1', '11', '13', '16', '33', '33e', '41', '41b', '41c', '41d', '44']"
8220DB000019,Botanic Avenue,19,53.3672348759349,-6.25559994097697,"['1', '11', '13', '16', '33', '33e', '41', '41b', '41c', '41d', '44']"
8220DB000021,DCU St Patrick's,21,53.3701011992972,-6.25431059904437,"['1', '11', '13', '16', '33', '33e', '41', '41b', '41c', '41d', '44']"
8220DB000022,Home Farm Road,22,53.3735036097431,-6.25280375269001,['11']
8220DB000023,Ferguson Road,23,53.3742282800816,-6.25626100416695,['11']
8220DB000024,Walsh Road,24,53.3751331588865,-6.26037234812314,['11']
8220DB000025,Rathlin Road,25,53.3758994661498,-6.26361773641705,['11']
8220DB000027,Ballymun Road,27,53.3794389600131,-6.26658526125999,"['11', '13', '155', '4', '9']"
8220DB000028,Hampstead Avenue,28,53.3815786376305,-6.26600227077734,"['11', '13', '155', '4', '9']"
8220DB000029,Albert College Park,29,53.3834882529482,-6.26566910125412,"['11', '13', '155', '4', '9']"
8220DB000030,Ventry Park,30,53.3703319001951,-6.30460116922909,"['120', '40e']"
8220DB000031,St Pappin's Road,31,53.3860332259168,-6.26885807727496,['11']
8220DB000032,Stormanstown Road,32,53.3861955680761,-6.27137720104136,['11']
8220DB000033,Glasnevin Drive,33,53.3887179243081,-6.27177114122446,['11']
8220DB000035,Dean Swift Road,35,53.3862067871037,-6.27091069254095,['11']
8220DB000036,Maolbuille Road,36,53.3861268504134,-6.26787706978334,['11']
8220DB000037,DCU Ballymun Road,37,53.3853464011964,-6.2648869813179,"['11', '13', '155', '4', '9']"
8220DB000038,Hampstead Avenue,38,53.3822365941661,-6.26550952120501,"['11', '13', '155', '4', '9']"
8220DB000039,The Rise,39,53.3804141869347,-6.26565875906584,"['11', '13', '155', '4', '9']"
8220DB000040,Stella Avenue,40,53.3766607654531,-6.2646689685279,"['11', '155', '4', '9']"
8220DB000041,Home Farm Road,41,53.3755592683283,-6.26185800624665,['11']
8220DB000042,Corpus Christi NS,42,53.37465027346,-6.25746118972129,['11']
8220DB000043,Achill Road,43,53.3738612202293,-6.25390131043387,['11']
8220DB000044,Skylon Hotel,44,53.3730174091229,-6.25213230324291,"['1', '11', '13', '16', '16d', '33', '41', '41b', '41c', '41d', '44']"
8220DB000045,DCU St Patrick's,45,53.3699364344031,-6.25410694084961,"['1', '11', '13', '16', '16d', '33', '41', '41b', '41c', '41d', '44']"
8220DB000046,Botanic Avenue,46,53.3671310162176,-6.25525855655008,"['1', '11', '13', '16', '16d', '33', '41', '41b', '41c', '41d', '44']"
8220DB000047,Drumcondra Rail Stn,47,53.3639161189952,-6.25729825652797,"['1', '11', '13', '16', '16d', '33', '41', '41b', '41c', '41d', '44']"
8220DB000048,Fitzroy Avenue,48,53.3622573901253,-6.25880841233312,"['1', '11', '13', '16', '16d', '33', '41', '41b', '41c', '41d', '44']"
8220DB000049,Dorset Street Lower,49,53.3600042378903,-6.26085350834049,"['1', '11', '13', '16', '16d', '33', '40', '40b', '40d', '41', '41b', '41c', '41d', '44']"
8220DB000051,Temple Street,51,53.3578104088118,-6.26327157246547,"['1', '11', '122', '13', '16', '16d', '33', '40', '40b', '40d', '41', '41b', '41c', '41d', '44']"
8220DB000052,Dorset Street Upper,52,53.3566607792373,-6.26456528204094,"['1', '11', '122', '13', '16', '16d', '33', '40', '40b', '40d', '41', '41b', '41c', '41d', '44']"
8220DB000053,North Circular Road,53,53.3600144884247,-6.26279128910748,['122']
8220DB000054,Mater Hospital,54,53.3602216080572,-6.26590803396304,['122']
8220DB000055,Mountjoy,55,53.3604116029257,-6.26846957982232,['122']
8220DB000056,Dalymount,56,53.3607597246064,-6.27637365491405,"['120', '122']"
8220DB000057,Dalymount,57,53.3608162242942,-6.27655167484326,"['38', '38a', '38b', '38d']"
8220DB000058,Churchview Home,58,53.3609462458936,-6.28120420246718,"['120', '122', '38', '38a', '38b', '38d']"
8220DB000059,Annamoe Terrace,59,53.3610180101986,-6.28494256312823,"['122', '38', '38a', '38b', '38d']"
8220DB000060,Quarry Road,60,53.3612792196503,-6.28936450005441,"['122', '38', '38a', '38b', '38d']"
8220DB000063,Faussaugh Avenue,63,53.3667924372952,-6.29275010805849,['122']
8220DB000064,Faussaugh Ave Church,64,53.3670885820688,-6.29523278220332,['122']
8220DB000065,Dingle Road,65,53.3672546442408,-6.29805127641295,['122']
8220DB000066,Broombridge Road,66,53.3672749883724,-6.30074034554988,['122']
8220DB000068,Ventry Drive,68,53.3690775080481,-6.30424523466637,"['120', '40e']"
8220DB000069,Carnlough Road,69,53.3713925640956,-6.30334171689521,"['120', '40e']"
8220DB000071,Ventry Park,71,53.370257689331,-6.30443880530348,"['120', '40e']"
8220DB000072,Ventry Drive,72,53.3689699260271,-6.30426453600159,"['120', '40e']"
8220DB000073,Faussagh Avenue,73,53.3673915527279,-6.30072067865566,['122']
8220DB000074,Faussaugh Ave Church,74,53.3672002385656,-6.29549881400774,['122']
8220DB000075,Fionnbarra GAA,75,53.3665472298968,-6.2913173193679,['120']
8220DB000077,Quarry Road,77,53.3613091819047,-6.28957365234684,"['122', '38', '38a', '38b', '38d']"
8220DB000078,Annamoe Terrace,78,53.3611492151928,-6.2840658352747,"['122', '38', '38a', '38b', '38d']"
8220DB000079,Churchview Home,79,53.3610212509784,-6.28079550562148,"['120', '122', '38', '38a', '38b', '38d']"
8220DB000080,Phibsborough PO,80,53.3608629632753,-6.27605396152958,"['120', '122', '38', '38a', '38b', '38d']"
8220DB000081,Phibsborough,81,53.3608757479082,-6.27196662691603,['46a']
8220DB000082,Phibsborough,82,53.3607977959179,-6.27154908016377,"['120', '122', '38', '38a', '38b', '38d']"
8220DB000083,Mater Hospital,83,53.3602792498247,-6.26554509616271,['122']
8220DB000084,Leo Street,84,53.3601625615987,-6.26370178059097,['122']
8220DB000085,Wellpark Avenue,85,53.3739579526161,-6.25191342966416,"['1', '13', '16', '33', '33e', '41', '41b', '41c', '41d', '44']"
8220DB000086,Home Farm FC,86,53.3760502204615,-6.25116639066164,['13']
8220DB000087,Clare Road,87,53.3767517255744,-6.25488028992455,['13']
8220DB000088,Walnut Rise,88,53.3772872553016,-6.25769922864556,['13']
8220DB000090,Albert College Court,90,53.3863855316762,-6.26526567275517,"['13', '155', '4', '9']"
8220DB000091,Ballymun Road NS,91,53.3884278896508,-6.26540814207678,"['13', '155', '4', '9']"
8220DB000092,Ballymun Library,92,53.3898373340536,-6.264674240361,"['13', '155', '4']"
8220DB000093,Gateway Avenue,93,53.3923014677522,-6.26415297561009,"['13', '155', '4']"
8220DB000094,Civic Centre,94,53.396034762414,-6.26437695995443,"['13', '155', '4']"
8220DB000102,Balbutcher Lane,102,53.3977730701685,-6.26771985697008,['13']
8220DB000104,Poppintree Parade,104,53.3997562075198,-6.27681294502523,['13']
8220DB000105,Belclare Park,105,53.4029363966841,-6.28169269646944,['13']
8220DB000107,Crannogue Road,107,53.4023798988012,-6.28049690990608,['13']
8220DB000110,Árd Na Meala,110,53.3979386409638,-6.26860038147326,['13']
8220DB000112,Civic Centre,112,53.3961544015487,-6.26395104030175,"['13', '155', '4']"
8220DB000113,Trinity Comp School,113,53.3922679629287,-6.26370325464242,"['13', '155', '4']"
8220DB000114,Ballymun Road,114,53.3913333220569,-6.26371122925232,"['13', '155', '4']"
8220DB000115,Ballymun Road Church,115,53.3879640919895,-6.26503610048144,"['13', '155', '4', '9']"
8220DB000117,Walnut Rise,117,53.3773659067276,-6.25754570845521,['13']
8220DB000118,Clare Road,118,53.3766430016933,-6.25359209857676,['13']
8220DB000119,The Village,119,53.3751904807261,-6.25076574528229,"['1', '13', '16', '16d', '33', '41', '41b', '41c', '41d', '44']"
8220DB000126,Nursing Home,126,53.3990954666878,-6.2640869605604,"['155', '4']"
8220DB000127,Nursing Home,127,53.3991075304829,-6.26368042823967,"['155', '4']"
8220DB000128,Glasnevin Avenue,128,53.3892678697442,-6.26568972261112,['N4']
8220DB000129,Glasnevin Drive,129,53.3898903154498,-6.27142293606873,"['9', 'N4']"
8220DB000130,Glasnevin Park,130,53.390092012762,-6.27418126942501,"['9', 'N4']"
8220DB000131,Willow Park Road,131,53.3903858902648,-6.27834923697204,"['9', 'N4']"
8220DB000132,Beneavin Park,132,53.3905207424955,-6.28271912369816,['N4']
8220DB000133,Grove Park Road,133,53.3907969275903,-6.28630150947288,"['83', '83a']"
8220DB000134,Sycamore Road,134,53.3930945913226,-6.28607386543557,"['83', '83a']"
8220DB000136,McKee Road,136,53.3943802013917,-6.28985659650005,['9']
8220DB000137,Clancy Avenue,137,53.3923167196326,-6.29263079481428,['9']
8220DB000138,St Canice's BNS,138,53.3899950092694,-6.29180657264737,"['83', '83a', '9', 'N4']"
8220DB000139,Grove Park Road,139,53.3906014624264,-6.28645971748868,['N4']
8220DB000140,Beneavin Park,140,53.3906344923664,-6.28250404674211,['N4']
8220DB000141,Willow Park Road,141,53.390445085094,-6.2780912446871,"['9', 'N4']"
8220DB000142,Glasnevin Park,142,53.3901982852644,-6.27407172195529,"['9', 'N4']"
8220DB000143,Willow Park Avenue,143,53.3898767084074,-6.26924336998015,"['9', 'N4']"
8220DB000146,Na Fianna GAA Club,146,53.3750401276344,-6.26509558567463,"['155', '4', '9']"
8220DB000147,Tolka Bridge,147,53.372480226241,-6.2658308621236,"['155', '4', '9']"
8220DB000148,Mobhi Road,148,53.3706701663492,-6.2680685070582,"['155', '4', '9']"
8220DB000149,Tolka Bridge,149,53.3731385872581,-6.26598446613774,"['155', '4', '9']"
8220DB000150,Na Fianna GAA Club,150,53.3756588461887,-6.26499528302818,"['155', '4', '9']"
8220DB000151,Botanic Gardens,151,53.3719552600216,-6.2692938277115,"['83', '83a']"
8220DB000153,Met Eireann,153,53.3756885056259,-6.27013443946291,"['83', '83a']"
8220DB000154,St Brigid's School,154,53.3772589962536,-6.27555703718647,"['83', '83a']"
8220DB000155,Old Finglas Road,155,53.3778742492892,-6.27957552717568,"['83', '83a']"
8220DB000156,Tolka Estate,156,53.3786233900883,-6.28166473909488,"['83', '83a']"
8220DB000157,Glasilawn Road,157,53.3804116224189,-6.28163782517761,['83a']
8220DB000158,Griffith Road,158,53.3814819498312,-6.28356395405034,['83a']
8220DB000159,Griffith Parade,159,53.3827837191596,-6.28283511246103,['83a']
8220DB000164,Beneavin Road,164,53.3884303639479,-6.28048792293041,['9']
8220DB000165,Beneavin Park,165,53.3890348746741,-6.28377124881093,['9']
8220DB000166,Beneavin School,166,53.3895835973705,-6.2863051485736,['9']
8220DB000167,Beneavin Road,167,53.3901866021378,-6.28698758531702,['9']
8220DB000168,Beneavin Park,168,53.3892599668895,-6.28442373469438,['9']
8220DB000169,Beneavin Court,169,53.3884339346717,-6.28011190995849,['9']
8220DB000173,Glasnamana Place,173,53.3821216123005,-6.28054674839464,['83a']
8220DB000174,Tolka Estate,174,53.3806803549497,-6.28095056210767,['83a']
8220DB000175,Northland Grove,175,53.3784242537332,-6.2815675389551,"['83', '83a']"
8220DB000176,Old Finglas Road,176,53.3780320419758,-6.27929860607804,"['83', '83a']"
8220DB000177,Ballygall Rd East,177,53.3804683765696,-6.27622403515379,['83']
8220DB000178,Fitzmaurice Road,178,53.3818902631716,-6.27634698261821,['83']
8220DB000179,Ballygall Rd East,179,53.3803034312785,-6.27600521980129,['83']
8220DB000181,Cremore Avenue,181,53.3771498433788,-6.27422370686187,"['83', '83a']"
8220DB000182,Met Eireann,182,53.3756567668245,-6.2698050597086,"['83', '83a']"
8220DB000183,Botanic Gardens,183,53.3723159291239,-6.26875318486034,"['83', '83a']"
8220DB000184,Botanic Road,184,53.369703681985,-6.26897935449925,"['155', '4', '83', '83a', '9']"
8220DB000185,St Teresa's Place,185,53.3681009359885,-6.27002113927779,"['155', '4', '83', '83a', '9']"
8220DB000186,Lindsay Grove,186,53.3653553426373,-6.27158997755113,"['140', '155', '4', '40', '40b', '40d', '83', '83a', '9']"
8220DB000187,Phibsborough Road,187,53.3627342523627,-6.27244736533827,"['140', '155', '4', '40', '83', '83a', '9']"
8220DB000188,North Circular Road,188,53.3601206877577,-6.27258314915006,"['140', '155', '4', '40', '83', '83a', '9']"
8220DB000189,Fire Station,189,53.3571674394906,-6.27346881555335,"['140', '155', '4', '40', '83', '83a', '9']"
8220DB000190,Broadstone,190,53.3551257304168,-6.2733710740057,"['140', '155', '4', '40', '83', '83a', '9']"
8220DB000191,Western Way,191,53.3550179485778,-6.26903378050287,"['140', '155', '4', '9']"
8220DB000192,Mountjoy Street,192,53.3563972112382,-6.2680764696391,"['120', '38', '38a', '38b', '38d', '40', '46a']"
8220DB000193,Finglas Park,193,53.391196305981,-6.2941040348739,['9']
8220DB000194,Western Way,194,53.3550406495542,-6.2699793110377,"['140', '155', '4', '9']"
8220DB000195,Broadstone,195,53.355011777879,-6.27357097973092,"['140', '155', '4', '83', '83a', '9']"
8220DB000196,Fire Station,196,53.356883899293,-6.27375070406949,"['140', '155', '4', '83', '83a', '9']"
8220DB000197,Monck Place,197,53.3589526316143,-6.27323137351168,"['140', '155', '4', '83', '83a', '9']"
8220DB000198,Phibsborough SC,198,53.361625382881,-6.27283781041656,"['140', '155', '4', '83', '83a', '9']"
8220DB000199,Munster Street,199,53.3636218115005,-6.27229124622515,"['140', '155', '4', '83', '83a', '9']"
8220DB000200,Prospect Way,200,53.3674226926335,-6.27159644393797,"['155', '4', '83', '83a', '9']"
8220DB000201,Botanic Road,201,53.3682910986623,-6.27011862691076,"['155', '4', '83', '83a', '9']"
8220DB000202,Fairfield Road,202,53.3700800875522,-6.26890397753371,"['83', '83a']"
8220DB000203,Whitehall College,203,53.3763927937161,-6.25001002810668,"['1', '16', '33', '33e', '41', '41b', '41c', '41d', '44']"
8220DB000204,Highfield Hospital,204,53.3795883575696,-6.24666219273756,"['1', '16', '33', '33e', '41', '41b', '41c', '41d', '44']"
8220DB000205,Iveragh Road,205,53.3813753269398,-6.24532604699468,"['1', '16', '33', '33e', '41', '41b', '41c', '41d', '44']"
8220DB000206,Collins Avenue West,206,53.3835460890355,-6.24747670792423,"['44', 'N4']"
8220DB000207,Larkhill Road,207,53.3848216307388,-6.24987478276797,['44']
8220DB000208,Glendun Road,208,53.3866539303184,-6.24795040815751,['44']
8220DB000209,Larkhill Road,209,53.3872711105316,-6.24591044728037,['44']
8220DB000210,Crestfield Road,210,53.3875940812754,-6.24831772849051,['44']
8220DB000211,Collins Avenue,211,53.3842808561657,-6.24916033059412,"['44', 'N4']"
8220DB000212,Whitehall,212,53.3831956351303,-6.24625839753317,"['44', 'N4']"
8220DB000213,Iveragh Road,213,53.381449544026,-6.24487202356891,"['1', '16', '16d', '33', '41', '41b', '41c', '41d', '44']"
8220DB000214,Highfield Hospital,214,53.3794084835756,-6.24665455182551,"['1', '16', '16d', '33', '41', '41b', '41c', '41d', '44']"
8220DB000215,Collins Avenue,215,53.3818722870075,-6.24244942922944,['16']
8220DB000216,Beaumont Road,216,53.3823308174863,-6.23819131969332,"['14', '16']"
8220DB000217,Grace Park Court,217,53.3843236218457,-6.23680112220441,"['14', '16']"
8220DB000218,Shantalla Road,218,53.3859238989727,-6.23378832411084,['16']
8220DB000220,Swords Road,220,53.3879405396581,-6.24498084117378,"['1', '16', '33', '33e', '41', '41b', '41c', '41d']"
8220DB000228,Shanliss Road,228,53.3918773927815,-6.25971957291393,['1']
8220DB000233,Beaumont Road,233,53.3858213105816,-6.23353699415897,['16']
8220DB000234,Beaumont Grove,234,53.3849504827269,-6.23482084271798,"['14', '16']"
8220DB000235,Collinswood,235,53.3832966131846,-6.23724945651053,"['14', '16']"
8220DB000236,Yellow Road,236,53.3820247430984,-6.2381588600378,"['14', '16']"
8220DB000237,Swords Road,237,53.3820319328845,-6.2435251997587,"['16', 'N4']"
8220DB000242,Coolgreena Road,242,53.3856548985699,-6.23201042764994,['14']
8220DB000243,Lady of Mercy,243,53.3857800608417,-6.22953967454693,['14']
8220DB000244,Skelly's Lane,244,53.3849982136881,-6.22349851566411,['14']
8220DB000245,Whitethorn Crescent,245,53.3844722444229,-6.21956660604606,['14']
8220DB000246,Artane Castle,246,53.3851504766498,-6.21623087716989,['14']
8220DB000247,Ardlea Road,247,53.3869761610618,-6.21450075590271,['27b']
8220DB000248,Maryfield Drive,248,53.3855645601755,-6.21446963135779,['14']
8220DB000249,Artane Castle,249,53.3849335491817,-6.21614974496389,['14']
8220DB000250,Skelly's Lane,250,53.3844194499814,-6.2202453161013,['14']
8220DB000251,Elmount Crescent,251,53.3848322787477,-6.22321978633306,['14']
8220DB000252,Lady of Mercy,252,53.3855680158399,-6.22796991791535,['14']
8220DB000253,Beaumont Hospital,253,53.3899625746441,-6.2242991422764,['27b']
8220DB000254,Beaumont Hospital,254,53.3902652984461,-6.22410611366832,"['14', '27b']"
8220DB000255,Coolgreena Road,255,53.3855938804217,-6.23153187241737,['14']
8220DB000261,Parnell Square East,261,53.3540562845357,-6.26285336122222,"['11', '116', '13', '40']"
8220DB000262,Parnell Square East,262,53.3539469610418,-6.26275264892104,"['16', '16d']"
8220DB000263,Parnell Square East,263,53.3537456234971,-6.26250545398005,"['120', '122', '9']"
8220DB000264,Parnell Square East,264,53.3535353026736,-6.26225862681687,"['140', '155', '46a']"
8220DB000265,Parnell Square East,265,53.3533615685169,-6.26205538070456,"['1', '38', '38a', '38b', '38d', '44']"
8220DB000270,O'Connell St Upper,270,53.3506233915332,-6.26042429163428,"['13', '16', '16d', '40']"
8220DB000271,O'Connell St Lower,271,53.3485963625842,-6.25948541997207,"['1', '11', '122', '44', '53']"
8220DB000272,O'Connell St Upper,272,53.3514644798942,-6.26078060573289,['123']
8220DB000273,O'Connell Bridge,273,53.3472474159548,-6.25881940153953,"['4', '7', '7a']"
8220DB000274,O'Connell St Upper,274,53.3503490838246,-6.2607208686217,"['123', '140', '38', '38a', '38b', '38d']"
8220DB000276,River Road,276,53.3774022009268,-6.33179658312853,['120']
8220DB000277,O'Connell St Upper,277,53.3508223258205,-6.26050631978687,"['33', '41', '41b', '41c', '41d', '9']"
8220DB000278,O'Connell St Upper,278,53.3515608719055,-6.26122733564312,"['1', '11', '16', '44', '46a', '46e']"
8220DB000279,O'Connell St Upper,279,53.3501317464117,-6.26060954701661,"['120', '122', '40']"
8220DB000281,O'Connell St Upper,281,53.3513435349612,-6.26111600843156,"['116', '13', '155', '4', '7', '7a', '7b', '7d', '9']"
8220DB000284,Rathbourne Avenue,284,53.377282623932,-6.32838928381525,['120']
8220DB000286,Cathal Brugha Street,286,53.352170843741,-6.25991061099432,['53']
8220DB000288,Irish Life,288,53.349168812324,-6.25560170347432,"['41', '41b', '41c', '41d']"
8220DB000289,Abbey St Lower,289,53.3490351823495,-6.25629812341938,['130']
8220DB000292,Abbey St Lower,292,53.349199694764,-6.25525495938706,"['33', '33e']"
8220DB000297,Eden Quay,297,53.3481432679383,-6.25677012601708,"['14', '151']"
8220DB000298,Eden Quay,298,53.3482006633767,-6.25639226781078,['27']
8220DB000299,Eden Quay,299,53.3482418474482,-6.25613523566331,['15']
8220DB000300,Liberty Hall,300,53.348299240861,-6.25575737577462,"['27a', '27b']"
8220DB000301,Eden Quay,301,53.3479883676024,-6.25662624092321,"['14', '142', '15']"
8220DB000302,Eden Quay,302,53.3480380961838,-6.25633882037526,"['151', '27', '27x', '33d', '33x', '61']"
8220DB000303,Eden Quay,303,53.348059998093,-6.25599245267002,"['118', '27b', '61', '84x']"
8220DB000307,O'Donovan Road,307,53.3345770894681,-6.28008746416517,['150']
8220DB000308,Oscar Square,308,53.3367711889568,-6.27953365692403,['150']
8220DB000309,Ardee Street,309,53.3378498917986,-6.2789195881599,['150']
8220DB000312,Wellington Quay,312,53.3454764728287,-6.26620615548425,"['26', '52', 'C1', 'C2', 'C3', 'C4', 'C5', 'C6', 'P29', 'X25', 'X27', 'X28', 'X30', 'X31', 'X32']"
8220DB000313,Bachelors Walk,313,53.3469069007469,-6.26197249771067,"['37', '70']"
8220DB000315,Bachelors Walk,315,53.3470282859033,-6.26166715514735,"['26', '37', '39', '39a', '39x', '51d', '52', '70', '83', '83a', 'C1', 'C2', 'C3', 'C4', 'C5', 'C6', 'P29', 'X25', 'X26', 'X27', 'X28', 'X30', 'X31', 'X32']"
8220DB000317,Westmoreland Street,317,53.3465259444521,-6.25926936624477,['26']
8220DB000319,Westmoreland Street,319,53.3462744267355,-6.25927961394872,"['1', '13', '140', '155', '40', '44', '83', '83a', '9']"
8220DB000320,Westmoreland Street,320,53.3456456323913,-6.25930523253443,"['11', '16', '46a', '46e', '7b', '7d']"
8220DB000322,Gulliver's Retail Pk,322,53.4042549924669,-6.26535084532181,"['13', '155', '4']"
8220DB000325,Aston Quay,325,53.3466970502557,-6.25990825953705,['145']
8220DB000326,Aston Quay,326,53.3465441159914,-6.26051529065719,"['79', '79a']"
8220DB000328,Aston Quay,328,53.3463328930427,-6.26144010930234,"['39', '39a', '39x']"
8220DB000329,Aston Quay,329,53.3462735131141,-6.26168284496423,"['37', '70']"
8220DB000333,D'Olier Street,333,53.3466922365933,-6.25834636399192,['33d']
8220DB000334,D'Olier Street,334,53.3465811562075,-6.25812559112211,"['140', '145', '155', '46a', '7b', '7d']"
8220DB000335,D'Olier Street,335,53.3463614054442,-6.25784917048533,"['123', '13', '39', '39a', '40']"
8220DB000336,D'Olier Street,336,53.3462516394318,-6.25771846673942,"['14', '16', '16d', '83', '83a', '9']"
8220DB000340,Townsend Street,340,53.3459751202948,-6.25601747845666,"['1', '15a', '15b', '15d', '44', '47', '52', '56a', '61', '77a', 'C1', 'C2', 'C3', 'C4', 'C5', 'C6']"
8220DB000342,College Street,342,53.3455641183199,-6.25680026075813,"['49', '54a', '84x']"
8220DB000345,Pearse St Garda Stn,345,53.3454758154714,-6.25629319407125,"['7b', '7d']"
8220DB000346,Pearse St Garda Stn,346,53.3455443981674,-6.2566809076365,['26']
8220DB000350,Prince's St South,350,53.3456319415842,-6.24976824959419,"['15a', '15b', '15d', '44', '47', '52', '56a', '61', '77a', '77x', 'C1', 'C2', 'C3', 'C4', 'C5', 'C6', 'P29', 'X25', 'X26', 'X27', 'X28', 'X30', 'X31', 'X32']"
8220DB000351,Erne Street,351,53.3434182647933,-6.24530817378356,"['47', '52', '56a', '77a', 'C1', 'C2', 'C3', 'C4', 'C5', 'C6', 'P29']"
8220DB000352,Pearse Square,352,53.3429891458056,-6.24241213998985,"['47', '52', '56a', '77a', 'C1', 'C2', 'C3', 'C4', 'C5', 'C6', 'P29']"
8220DB000353,Grand Canal Quay,353,53.3426450090451,-6.23979801761223,"['47', '52', '56a', '77a', 'C1', 'C2', 'C3', 'C4', 'C5', 'C6', 'P29']"
8220DB000354,Ringsend Road,354,53.34223582802,-6.23643568982665,"['47', '52', '56a', '77a', 'C1', 'C2', 'C3', 'C4', 'C5', 'C6', 'P29']"
8220DB000355,Ringsend Garage,355,53.3418173477838,-6.23305879069294,"['47', 'C1', 'C2']"
8220DB000356,Ringsend,356,53.3419030234443,-6.22671744313459,"['47', 'C1', 'C2']"
8220DB000357,Irishtown Road,357,53.3391710439696,-6.22312147489852,"['47', 'C1', 'C2']"
8220DB000371,Irishtown Road,371,53.3386127807395,-6.22305458253416,"['47', 'C1', 'C2']"
8220DB000372,Star of the Sea,372,53.3354881469527,-6.21965567144895,"['47', 'C1', 'C2']"
8220DB000373,Farney Park,373,53.3342753312741,-6.21788927259648,"['47', 'C1', 'C2']"
8220DB000374,Sandymount,374,53.3332284399034,-6.21640134211917,"['47', 'C1', 'C2']"
8220DB000381,St John's Church,381,53.3243237661094,-6.21237419337661,"['47', 'C1', 'C2']"
8220DB000387,Sandymount,387,53.3324995102021,-6.21574105767743,"['47', 'C1', 'C2']"
8220DB000388,Farney Park,388,53.3345088619679,-6.21848017255207,"['47', 'C1', 'C2']"
8220DB000389,Star of the Sea,389,53.335290081799,-6.21963388936857,"['47', 'C1', 'C2']"
8220DB000390,Tritonville Road,390,53.3376299137873,-6.22223947933765,"['47', 'C1', 'C2']"
8220DB000391,Bath Street,391,53.340063855475,-6.22392535183319,"['47', 'C1', 'C2']"
8220DB000392,Ringsend,392,53.3417336311692,-6.22741532105916,"['47', 'C1', 'C2']"
8220DB000393,Tritonville Road,393,53.3369038877197,-6.22237479685257,"['47', 'C1', 'C2']"
8220DB000395,Ringsend Road,395,53.3419400535678,-6.23527645441628,"['27', '47', '52', '56a', '77a', 'C1', 'C2', 'C3', 'C4', 'C5', 'C6', 'P29']"
8220DB000396,Grand Canal Quay,396,53.3424425175736,-6.23947594842615,"['27', '47', '52', '56a', '77a', 'C1', 'C2', 'C3', 'C4', 'C5', 'C6', 'P29']"
8220DB000397,Pearse Square,397,53.342785555443,-6.24201500730756,"['27', '47', '52', '56a', '77a', 'C1', 'C2', 'C3', 'C4', 'C5', 'C6', 'P29']"
8220DB000398,Erne Street,398,53.3432949350384,-6.24547844686784,"['27', '47', '52', '56a', '77a', 'C1', 'C2', 'C3', 'C4', 'C5', 'C6', 'P29']"
8220DB000399,Pearse Station,399,53.3438668221087,-6.2483086014322,"['27', '47', '52', '56a', '77a', 'C1', 'C2', 'C3', 'C4', 'C5', 'C6', 'P29']"
8220DB000400,Shaw Street,400,53.3448491210166,-6.25338997292405,"['1', '120', '15a', '15b', '15d', '26', '27', '4', '44', '47', '52', '56a', '61', '7', '77a', '7a', 'C1', 'C2', 'C3', 'C4', 'C5', 'C6', 'P29', 'X31']"
8220DB000404,Nassau Street,404,53.3426633325129,-6.25634789239425,"['11', '37', '38', '38a', '38b', '38d', '39', '39a', '70']"
8220DB000405,Nassau Street,405,53.342481689184,-6.25560437266425,"['4', '7', '7a']"
8220DB000406,Nassau Street,406,53.3426061451661,-6.25612494578256,"['145', '155', '26', '46a', '7b', '7d']"
8220DB000407,Custom House,407,53.3483795866704,-6.25387650599506,"['142', '151', '33d', '33x', '41x']"
8220DB000408,Merrion Sq North,408,53.3409707826263,-6.25001923957637,"['120', '27x', '4', '7', '7a']"
8220DB000409,Holles Street,409,53.3401367313194,-6.24769559556971,"['120', '27x', '4', '7', '7a']"
8220DB000410,Mount Street Lower,410,53.338813450866,-6.24389039032323,"['120', '4', '7', '7a']"
8220DB000411,Mount Street Bridge,411,53.3381171192237,-6.24177155350135,"['120', '27x', '4', '7', '7a']"
8220DB000412,Haddington Road,412,53.3352555102392,-6.23727931905615,"['120', '4', '7', '7a']"
8220DB000413,Lansdowne Park,413,53.3340941933076,-6.23654639405147,"['120', '4', '7', '7a']"
8220DB000414,Lansdowne Road,414,53.3315738058974,-6.23447321695269,"['120', '27x', '4', '7', '7a']"
8220DB000415,American Embassy,415,53.3303378154095,-6.23294774966432,"['120', '4', '7', '7a']"
8220DB000416,RDS Ballsbridge,416,53.3286399201201,-6.22936956914697,"['27x', '4', '7', '7a']"
8220DB000417,Merrion Road,417,53.3276995856533,-6.22597042048849,"['27x', '4', '7', '7a', '7d']"
8220DB000418,British Embassy,418,53.3257198105141,-6.22339529752613,"['27x', '4', '7', '7a']"
8220DB000419,Shrewsbury Park,419,53.3239951058445,-6.22044950312346,"['27x', '4', '7', '7a']"
8220DB000420,Merlyn Road,420,53.3219108012913,-6.21750392172743,"['27x', '4', '7', '7a']"
8220DB000421,Merrion View Avenue,421,53.3200051794243,-6.21449112042236,"['4', '7', '7a']"
8220DB000422,St Vincent's Hosp,422,53.3180641918658,-6.21032428070776,"['4', '7', '7a']"
8220DB000423,Herbert Avenue,423,53.317148504137,-6.20740565828112,"['4', '7', '7a']"
8220DB000424,Merrion Gates,424,53.3153943802017,-6.20372686621338,"['4', '7', '7a']"
8220DB000476,Merrion Gates,476,53.3157515263735,-6.20476252273258,"['4', '7', '7a', '7d', '84a']"
8220DB000477,Herbert Avenue,477,53.3168630546851,-6.20695232009327,"['4', '7', '7a', '7d', '84a']"
8220DB000478,St Vincent's Hosp,478,53.3181142989183,-6.21126782530883,"['4', '7', '7a', '7d', '84a']"
8220DB000479,Merrion Centre,479,53.3191439676238,-6.21340128669965,"['27x', '4', '7', '7a']"
8220DB000480,Netherlands Embassy,480,53.32084997999,-6.21628720536765,"['27x', '4', '7', '7a']"
8220DB000481,Wanderers FC,481,53.3223446397574,-6.21826644297952,"['27x', '4', '7', '7a']"
8220DB000482,Shrewsbury Road,482,53.3247277780876,-6.22196529496766,"['27x', '4', '7', '7a']"
8220DB000483,British Embassy,483,53.3259441074967,-6.22397148052323,"['27x', '4', '7', '7a']"
8220DB000485,RDS Ballsbridge,485,53.3282515101299,-6.22863497077614,"['120', '27x', '4', '7', '7a', '7d']"
8220DB000487,American Embassy,487,53.3308552893834,-6.23390230837204,"['120', '4', '7', '7a', '7d']"
8220DB000488,Lansdowne Park,488,53.333098554632,-6.23607694701102,"['120', '27x', '4', '7', '7a', '7d']"
8220DB000489,St Mary's Rd South,489,53.3349420031478,-6.23735231265615,"['120', '4', '7', '7a', '7d']"
8220DB000490,Haddington Road,490,53.3365738419154,-6.23890680600162,"['120', '4', '7', '7a', '7d']"
8220DB000491,Mount Street Bridge,491,53.3378140535117,-6.24133351088669,"['120', '27x', '4', '7', '7a', '7d']"
8220DB000492,Mount Street Lower,492,53.3385846851446,-6.24361446215904,"['120', '4', '7', '7a', '7d']"
8220DB000493,Holles Street,493,53.3398534163799,-6.24737682273893,"['120', '15a', '15b', '15d', '26', '27x', '4', '7', '7a', '7d']"
8220DB000494,Clare Street,494,53.341435583359,-6.25168225233912,"['120', '15a', '15b', '15d', '26', '27x', '4', '7', '7a', '7d', 'X25', 'X27', 'X28', 'X30', 'X31', 'X32']"
8220DB000495,Pearse Station,495,53.3435913198155,-6.24974670516899,"['120', '15a', '15b', '15d', '26', '27x', '4', '44', '61', '7', '7a', '7d']"
8220DB000496,Busáras,496,53.3494968761366,-6.2522235786816,"['130', '14', '27', '27a', '27x', '32x', '53', '6', 'H1', 'H2', 'H3']"
8220DB000497,Connolly,497,53.3505260754016,-6.25069434322377,"['14', '15', '27', '27a', '27b', '42', '43', '53']"
8220DB000499,Summerhill Parade,499,53.3574503386186,-6.24908862686219,['123']
8220DB000500,Ballybough Road,500,53.3590360763203,-6.24628915528178,['123']
8220DB000501,Clonliffe Avenue,501,53.3607056846908,-6.24369637425139,['123']
8220DB000509,Ballybough Road,509,53.3606013493615,-6.24332503950189,['123']
8220DB000510,Charleville Avenue,510,53.3591893775426,-6.24571192723736,['123']
8220DB000511,Summerhill Parade,511,53.3575155897157,-6.24863523337019,['123']
8220DB000513,Rutland Street,513,53.3552119629841,-6.25397276810393,"['123', '53']"
8220DB000515,Portland Row,515,53.3535348728268,-6.24809240079494,"['130', '14', '15', '27', '27a', '27b', '42', '43', '53', '6', 'H1', 'H2', 'H3']"
8220DB000516,North Strand Road,516,53.3556839194156,-6.24570568436261,"['130', '14', '15', '27', '27a', '27b', '42', '43', '53', '6', 'H1', 'H2', 'H3']"
8220DB000518,Waterloo Avenue,518,53.358904162431,-6.24099094394505,"['53', '6', 'H1', 'H2', 'H3']"
8220DB000519,North Strand Fire Station,519,53.3603387601192,-6.23953452865892,"['130', '14', '15', '27', '27a', '27b', '42', '43', '6', 'H1', 'H2', 'H3']"
8220DB000521,Annesley Bridge,521,53.3616370470509,-6.23797846068548,"['130', '14', '15', '27', '27a', '27b', '42', '43', '6', 'H1', 'H2', 'H3']"
8220DB000522,Fairview,522,53.3632889490314,-6.23541597469792,"['130', '14', '15', '27', '27a', '27b', '32x', '42', '43', '6', 'H1', 'H2', 'H3']"
8220DB000523,Marino College,523,53.3642854537147,-6.23169333166141,"['130', '14', '15', '27', '27a', '27b', '27x', '42', '43', '6', 'H1', 'H2', 'H3']"
8220DB000525,Howth Road,525,53.3649608735137,-6.22633091116311,"['6', 'H1', 'H2', 'H3', 'N4']"
8220DB000526,Copeland Grove,526,53.3668695721507,-6.22111227858026,"['6', 'H1', 'H2', 'H3', 'N4']"
8220DB000527,Ashbrook,527,53.3680198762304,-6.21267888054439,"['6', 'H1', 'H2', 'H3', 'N4']"
8220DB000528,Castle Grove,528,53.3692640807,-6.20993674463172,"['6', 'H1', 'H2', 'H3', 'N4']"
8220DB000529,Collins Avenue,529,53.3705774149481,-6.20761234516723,"['6', 'H1', 'H2', 'H3', 'N4']"
8220DB000530,Killester,530,53.3712245323475,-6.20402332968275,"['6', 'H1', 'H2', 'H3']"
8220DB000531,The Demesne,531,53.3732509125134,-6.20130788472607,"['6', 'H1', 'H2', 'H3']"
8220DB000532,The Meadows,532,53.3758020804062,-6.19347468575645,"['6', 'H1', 'H2', 'H3']"
8220DB000533,Ennafort Park,533,53.3775832778058,-6.18705613952435,"['6', 'H2', 'H3']"
8220DB000534,Cill Eanna,534,53.3787502415627,-6.1816402899894,"['6', 'H2', 'H3']"
8220DB000535,Raheny,535,53.3802570730373,-6.17730695711366,"['H2', 'H3']"
8220DB000536,Raheny Library,536,53.380423756711,-6.17351172677598,"['H2', 'H3']"
8220DB000537,Avondale Park,537,53.3799012003082,-6.16815263497718,"['H2', 'H3']"
8220DB000538,Maywood,538,53.3801380645897,-6.16426418318847,"['H2', 'H3']"
8220DB000539,Foxfield,539,53.380673661813,-6.1593556415375,"['H2', 'H3']"
8220DB000540,Lonsdale,540,53.3813362763715,-6.15511794353322,"['H2', 'H3']"
8220DB000541,James Larkin Road,541,53.3818727077533,-6.15202806844657,"['H2', 'H3']"
8220DB000542,Strand View,542,53.3836619200484,-6.14626794992899,"['6', 'H2', 'H3']"
8220DB000591,Kilbarrack Road,591,53.3841675899819,-6.1446824866416,"['6', 'H2', 'H3']"
8220DB000592,James Larkin Road,592,53.3827330098133,-6.14838287246937,"['6', 'H2', 'H3']"
8220DB000593,Howth Road,593,53.3818486949724,-6.1516382571641,"['H2', 'H3']"
8220DB000594,Lonsdale ,594,53.3811633655603,-6.15556136213255,"['H2', 'H3']"
8220DB000595,Foxfield,595,53.3805999504448,-6.15923856299824,"['H2', 'H3']"
8220DB000596,Shieling Square,596,53.3802528433273,-6.16179397207683,"['H2', 'H3']"
8220DB000597,Maywood,597,53.3798981358436,-6.16561235536727,"['H2', 'H3']"
8220DB000598,Avondale Park,598,53.3798466295629,-6.16928237742025,"['H2', 'H3']"
8220DB000599,Raheny Library,599,53.380300318921,-6.17308107835297,"['H2', 'H3']"
8220DB000600,Raheny,600,53.3802479252415,-6.17611981052532,"['H1', 'H2', 'H3']"
8220DB000601,Cill Eanna,601,53.3792234833207,-6.17966599663786,"['6', 'H2', 'H3']"
8220DB000602,Wade's Avenue,602,53.3781425247933,-6.18304907100983,"['6', 'H2', 'H3']"
8220DB000603,Ennafort Park,603,53.3773821590119,-6.18742542966489,"['6', 'H2', 'H3']"
8220DB000604,All Saints Road,604,53.3763546440125,-6.1907908597344,"['6', 'H1', 'H2', 'H3']"
8220DB000605,The Meadows,605,53.3756666621091,-6.19343532660639,"['6', 'H1', 'H2', 'H3']"
8220DB000606,St Brigid's Church,606,53.3747089784039,-6.19786466034232,"['6', 'H1', 'H2', 'H3']"
8220DB000607,The Demesne,607,53.3725157799941,-6.2020302137195,"['6', 'H1', 'H2', 'H3']"
8220DB000608,Killester,608,53.3710783844663,-6.20446531476556,"['6', 'H1', 'H2', 'H3']"
8220DB000609,Castle Grove,609,53.3698375440806,-6.20862025648962,"['6', 'H1', 'H2', 'H3', 'N4']"
8220DB000610,Ashbrook,610,53.3683623013095,-6.21153745527432,"['6', 'H1', 'H2', 'H3', 'N4']"
8220DB000611,Hollybrook Park,611,53.3667546791219,-6.21883292211129,"['6', 'H1', 'H2', 'H3', 'N4']"
8220DB000612,Copeland Avenue,612,53.3657562265207,-6.22420912998324,"['6', 'H1', 'H2', 'H3', 'N4']"
8220DB000613,Marino Crescent Park,613,53.3646174709919,-6.22681099838456,"['6', 'H1', 'H2', 'H3', 'N4']"
8220DB000614,Fairview,614,53.3636380024156,-6.23349323029591,"['130', '14', '15', '27', '27a', '27b', '27x', '32x', '42', '43', '6', 'H1', 'H2', 'H3']"
8220DB000615,Annesley Bridge,615,53.3619064164568,-6.23735129893029,"['130', '14', '15', '27', '27a', '27b', '42', '43', '6', 'H1', 'H2', 'H3']"
8220DB000616,Nth Strand Fire Stn,616,53.3598447138057,-6.23955489630255,"['130', '14', '15', '27', '27a', '27b', '42', '43', '53', '6', 'H1', 'H2', 'H3']"
8220DB000617,Strandville Avenue,617,53.3578945210736,-6.24200909637442,"['130', '14', '15', '27', '27a', '27b', '42', '43', '53', '6', 'H1', 'H2', 'H3']"
8220DB000618,Newcomen Bridge,618,53.3561011779693,-6.2447420676032,"['130', '14', '15', '27', '27a', '27b', '42', '43', '53', '6', 'H1', 'H2', 'H3']"
8220DB000619,Amiens Street,619,53.354044625043,-6.24730533351979,"['130', '14', '15', '27', '27a', '27b', '42', '43', '53', '6', 'H1', 'H2', 'H3']"
8220DB000620,Talbot Street,620,53.3509610944437,-6.25277955690344,"['130', '27a', '6', 'H1', 'H2', 'H3']"
8220DB000621,Talbot Street,621,53.3505177759176,-6.25626764847559,"['130', '32x']"
8220DB000624,Ribh Road,624,53.3801853071332,-6.18912523804644,['27a']
8220DB000625,Lein Gardens,625,53.3817875653858,-6.18632129728294,['27a']
8220DB000626,Edenmore Green,626,53.3844945184184,-6.184056419159,['27a']
8220DB000627,Edenmore Green,627,53.3854070170203,-6.18200303261629,['27a']
8220DB000628,Edenmore Grove,628,53.3869549963236,-6.18390657920355,['27a']
8220DB000629,Edenmore Drive,629,53.3865279695261,-6.18596942471487,['27a']
8220DB000630,Springdale Road,630,53.3872439958543,-6.18932175227282,['27a']
8220DB000633,Tonlegee Drive,633,53.3896443404853,-6.18935518044474,['27a']
8220DB000634,Tonlegee Avenue,634,53.3902751966557,-6.18414110920998,['27a']
8220DB000635,Glenwood Road,635,53.3890225360691,-6.18392380127641,['27a']
8220DB000636,Glenfarne Road,636,53.3888586595197,-6.18674234809091,['27a']
8220DB000637,Springdale Road,637,53.3877918262056,-6.18988485424514,['27a']
8220DB000638,Edenmore Avenue,638,53.3867623213274,-6.18837999607747,['27a']
8220DB000639,Edenmore Park,639,53.3863330185355,-6.18674446075589,['27a']
8220DB000640,Edenmore Grove,640,53.3867053852028,-6.18345113980018,['27a']
8220DB000641,Edenmore Green,641,53.3858263828484,-6.18239108146187,['27a']
8220DB000642,Edenmore Green,642,53.3847318483083,-6.18311422897609,['27a']
8220DB000643,St Josephs Hospital,643,53.3835661358844,-6.18388546834102,['27a']
8220DB000644,Lein Park,644,53.3823625142349,-6.18571057664609,['27a']
8220DB000645,Ribh Road,645,53.3801688019276,-6.18862988048621,['27a']
8220DB000649,All Saints Road,649,53.3762836659138,-6.18966656708737,['H1']
8220DB000650,Sybil Hill Avenue,650,53.3754028537371,-6.18552548323378,['H1']
8220DB000651,All Saints Park,651,53.3754794507748,-6.17993090906123,['H1']
8220DB000653,Raheny,653,53.3794630466278,-6.17534163896214,['H1']
8220DB000654,Watermill Road,654,53.3792100758013,-6.1770209808307,"['6', 'H1']"
8220DB000655,Watermill Drive,655,53.377738671388,-6.17543040232874,['H1']
8220DB000656,St Anne's Avenue,656,53.3764702007995,-6.17770919175959,['H1']
8220DB000657,All Saints Park,657,53.3755453978811,-6.17895111704471,['H1']
8220DB000658,Waterfall Road,658,53.3749800484848,-6.18313861991678,['H1']
8220DB000659,Sybil Hill Avenue,659,53.3752374406836,-6.18587821348983,['H1']
8220DB000662,Clanmoyle Road,662,53.3738704165821,-6.2126292751266,['N4']
8220DB000664,Donnycarney Church,664,53.3747192481277,-6.21950756213928,"['14', '15', '27', '27a', '27b', '27x', '42', '43']"
8220DB000665,Casino Park,665,53.3724663177962,-6.22212646122617,"['14', '15', '27', '27a', '27b', '42', '43']"
8220DB000666,Mount Temple School,666,53.3702331241242,-6.22426334784648,"['14', '15', '27', '27a', '27b', '42', '43']"
8220DB000667,Brian Road,667,53.3679816454687,-6.22698684651136,"['14', '15', '27', '27a', '27b', '42', '43']"
8220DB000668,Marino Crescent Park,668,53.3645749808616,-6.2293973168947,"['14', '15', '27', '27a', '27b', '42', '43']"
8220DB000669,Malahide Road,669,53.3663170047536,-6.2286789053178,"['14', '15', '27', '27a', '27b', '42', '43']"
8220DB000670,Mount Temple School,670,53.3689561148113,-6.22602966389205,"['14', '15', '27', '27a', '27b', '42', '43']"
8220DB000671,Nazareth House,671,53.3707168419713,-6.22415305315512,"['14', '15', '27', '27a', '27b', '42', '43']"
8220DB000672,Donnycarney Road,672,53.3734663500314,-6.22107782075331,"['14', '15', '27', '27a', '27b', '42', '43']"
8220DB000674,Parnell Park,674,53.3746860705086,-6.21608209235959,['N4']
8220DB000675,Buckingham St Lower,675,53.3528581377187,-6.24852575947702,"['130', '14', '15', '27', '27a', '27b', '32x', '42', '43', '53', '6', 'H1', 'H2', 'H3']"
8220DB000709,St Brigid's Church,709,53.3750380598535,-6.19703913201497,"['6', 'H1', 'H2', 'H3']"
8220DB000722,Raheny Station,722,53.3811136996541,-6.17572202474458,['H1']
8220DB000723,Raheny Road,723,53.3841517880068,-6.17572742205121,['H1']
8220DB000724,Grange Park Road,724,53.3869554629434,-6.17451001140899,['H1']
8220DB000725,Ardscoil La Salle,725,53.3895723720669,-6.17048881126748,['H1']
8220DB000726,Grange Road,726,53.3917483514253,-6.16761378066958,['H1']
8220DB000727,Ardara Avenue,727,53.3937048518666,-6.16683802482064,['H1']
8220DB000728,Holy Trinity Church,728,53.3953162106862,-6.16349059472369,['H1']
8220DB000729,Holy Trinity NS,729,53.3965584588012,-6.16244459517583,['H1']
8220DB000730,Grangemore Road,730,53.3981666977319,-6.16181886879412,['H1']
8220DB000738,Grange Road,738,53.3976003550339,-6.16181320548635,['H1']
8220DB000739,Holy Trinity Church,739,53.3951450858632,-6.16346788917255,['H1']
8220DB000740,Ardara Avenue,740,53.3931412776249,-6.16701261526435,['H1']
8220DB000741,St Donagh's Road,741,53.3919077252243,-6.16745657119044,['H1']
8220DB000742,Raheny Road,742,53.3898234138486,-6.16986158795105,['H1']
8220DB000743,Woodbine Park,743,53.3880248638058,-6.17273523820554,['H1']
8220DB000744,Belmont Park,744,53.385092198804,-6.1749204843706,['H1']
8220DB000745,Raheny Station,745,53.3813435656084,-6.17547167673021,['H1']
8220DB000746,Kildare Street,746,53.3401536166397,-6.25559428153346,['84x']
8220DB000747,Kildare Street,747,53.339930803028,-6.25572351873592,"['11', '145', '155', '33d', '37', '38', '38a', '38b', '38d', '39', '39a', '46a', '70', '7b', '7d']"
8220DB000748,Huguenot Cemetery,748,53.3385095343971,-6.25503066600713,"['33d', '38', '38a', '38b', '38d', '39', '39a', '70']"
8220DB000749,Baggot St Lower,749,53.3376207009532,-6.25080214718473,"['38', '38a', '38b', '38d', '39', '39a', '39x', '51d', '70']"
8220DB000750,Fitzwilliam Street,750,53.3365710800776,-6.24848750327109,"['38', '38a', '38b', '38d', '39', '39a', '51d', '70', '77x']"
8220DB000751,Herbert Street,751,53.3353205479273,-6.24657163552751,"['38', '38a', '38b', '38d', '39', '39a', '39x', '51d', '70', '77x']"
8220DB000752,Baggot St Upper,752,53.3336716542353,-6.24446202003109,"['38', '38a', '38b', '38d', '39', '39a', '39x', '51d', '70', '77x']"
8220DB000753,Waterloo Road,753,53.3324533902718,-6.24352105457139,"['38', '38a', '38b', '38d', '39', '39a', '51d', '70', '77x']"
8220DB000754,Burlington Road,754,53.330783782374,-6.24428032727376,"['39a', '51d', '77x']"
8220DB000755,Wellington Lane,755,53.3288280456981,-6.24514136798765,"['39a', '51d', '77x']"
8220DB000756,Royal Hospital,756,53.3263997617809,-6.24259874670305,"['116', '145', '155', '39a', '41x', '46a', '77x', '7b', '7d', 'X25', 'X27', 'X28', 'X30']"
8220DB000757,Donnybrook Village,757,53.324081337159,-6.23958650985933,"['116', '145', '155', '39a', '41x', '46a', '77x', '7b', '7d', 'X25', 'X27', 'X28', 'X30']"
8220DB000758,Victoria Avenue,758,53.3226869429553,-6.2376773804315,"['116', '145', '155', '39a', '41x', '46a', '77x', '7b', '7d', '84x', 'X25', 'X27', 'X28', 'X30']"
8220DB000759,Donnybrook Stadium,759,53.3203488508448,-6.23334551683728,"['116', '145', '155', '32x', '39a', '41x', '46a', '77x', '7b', '7d', 'X25', 'X27', 'X28', 'X30']"
8220DB000760,Donnybrook Church,760,53.318330187289,-6.23056195593035,"['116', '145', '155', '32x', '39a', '41x', '46a', '77x', '7b', '7d', '84x', 'X25', 'X27', 'X28', 'X30']"
8220DB000761,Teresian School,761,53.3161004007996,-6.22748721370695,"['116', '145', '155', '32x', '39a', '46a', '77x', '7b', '7d', 'X25', 'X27', 'X28', 'X30']"
8220DB000762,RTE,762,53.3145170648506,-6.22437094406488,"['116', '145', '155', '32x', '39a', '41x', '46a', '77x', '7b', '7d', 'X25', 'X27', 'X28', 'X30']"
8220DB000763,Belfield Court,763,53.3123201447844,-6.2211003190802,"['116', '145', '155', '27x', '32x', '39a', '41x', '46a', '47', '77x', '7b', '7d', 'X25', 'X27', 'X28', 'X30']"
8220DB000769,Belfield Court,769,53.3119010923178,-6.22132785711797,"['116', '118', '145', '155', '39a', '41x', '46a', '46e', '7b', '7d', 'X25', 'X27', 'X28', 'X30']"
8220DB000770,RTE,770,53.3146361875625,-6.22573181130967,"['116', '118', '145', '155', '32x', '39a', '41x', '46a', '46e', '7b', '7d', 'X25', 'X27', 'X28', 'X30']"
8220DB000771,Teresian School,771,53.315880069244,-6.22778152242798,"['116', '118', '145', '155', '39a', '41x', '46a', '46e', '7b', '7d', 'X25', 'X27', 'X28', 'X30']"
8220DB000772,Donnybrook Garage,772,53.3184852574564,-6.23132106360088,"['116', '118', '145', '155', '39a', '41x', '46a', '46e', '7b', '7d', '84x', 'X25', 'X27', 'X28', 'X30']"
8220DB000773,Donnybrook Road,773,53.3199163484799,-6.23327331931076,"['116', '118', '145', '155', '32x', '39a', '41x', '46a', '46e', '7b', '7d', 'X25', 'X27', 'X28', 'X30']"
8220DB000774,Donnybrook Garda Stn,774,53.3216121235643,-6.23549999641969,"['116', '118', '145', '155', '32x', '39a', '41x', '46a', '46e', '7b', '7d', 'X25', 'X27', 'X28', 'X30']"
8220DB000775,Donnybrook Village,775,53.3234897098062,-6.23908544721608,"['116', '118', '145', '155', '39a', '41x', '46a', '46e', '7b', '7d', '84x', 'X25', 'X27', 'X28', 'X30']"
8220DB000776,Morehampton Terrace,776,53.3254792402838,-6.2417358210607,"['116', '118', '145', '155', '39a', '41x', '46a', '46e', '7b', '7d', 'X25', 'X27', 'X28', 'X30']"
8220DB000777,Royal Hospital,777,53.3269721601116,-6.24362614364866,"['116', '118', '145', '155', '39a', '41x', '46a', '46e', '7b', '7d', 'X25', 'X27', 'X28', 'X30']"
8220DB000779,Waterloo Road,779,53.3286887363318,-6.24544736264849,['39a']
8220DB000780,Burlington Road,780,53.3310633511706,-6.24434391821202,['39a']
8220DB000781,Baggot Street,781,53.3326262714266,-6.24366410261758,['39a']
8220DB000782,Baggot St Upper,782,53.3335838144594,-6.24460076754328,['39a']
8220DB000783,Baggot St Lower,783,53.3353085373768,-6.2469775639698,"['37', '38', '38a', '38b', '38d', '39', '39a', '39x', '70']"
8220DB000784,Fitzwilliam Street,784,53.3364567280923,-6.24865737146509,"['37', '38', '38a', '38b', '38d', '39', '39a', '70']"
8220DB000785,Pembroke St Lower,785,53.3371058976042,-6.25185937348658,"['37', '38', '38a', '38b', '38d', '39', '39a', '39x', '70', 'X25', 'X26', 'X27', 'X28', 'X30', 'X31', 'X32']"
8220DB000786,Embassy of Malta,786,53.3351644610142,-6.25615829567478,"['11', '116', '118', '145', '155', '37', '38', '38a', '38b', '38d', '39', '39a', '39x', '46a', '46e', '70', '7b', '7d', 'X25', 'X26', 'X27', 'X28', 'X30', 'X31', 'X32']"
8220DB000790,Stephen's Green Nth,790,53.3392943719705,-6.2583024730144,"['32x', '41x']"
8220DB000792,Dawson Street,792,53.3404489881529,-6.25858580845115,"['116', '118', '145', '155', '46a', '46e', '7b', '7d', '84x']"
8220DB000793,Dawson Street,793,53.3408597860312,-6.25840386924726,"['11', '37', '38', '38a', '38b', '38d', '39', '39a', '39x', '44', '61', '70']"
8220DB000795,Berkeley Road,795,53.3587400433,-6.26972427815321,"['120', '38', '38a', '38b', '38d', '46a']"
8220DB000796,Berkeley Road,796,53.3600182144458,-6.26985278581187,"['120', '38', '38a', '38b', '38d', '46a']"
8220DB000797,Phibsborough PO,797,53.3607260028228,-6.27466216472101,['46a']
8220DB000798,Rathdown Road,798,53.3594766361445,-6.27964070094012,['46a']
8220DB000799,Charleville Road,799,53.3588687100123,-6.28173855104542,['46a']
8220DB000800,Annamore Parade,800,53.3580651515253,-6.28461042894806,['46a']
8220DB000801,Annamore Road,801,53.3574704998135,-6.28763908243526,['46a']
8220DB000802,Drumalee,802,53.356498322495,-6.29129872279029,"['37', '46a']"
8220DB000803,Oxmantown Road,803,53.3547130307126,-6.29404421385996,['46a']
8220DB000804,Grange Abbey Cresc,804,53.3536849851876,-6.29569268053348,['46a']
8220DB000807,Phoenix Park,807,53.3515565121175,-6.29770038608447,['46a']
8220DB000808,North Circular Road,808,53.3539946695217,-6.29534982649483,['46a']
8220DB000809,Marlborough Road,809,53.3552607398072,-6.29337634624947,['46a']
8220DB000810,Ellesmere Avenue,810,53.3570998601593,-6.28999764127668,['46a']
8220DB000811,Annamore Road,811,53.3575671567889,-6.28748496819663,['46a']
8220DB000812,Annamore Parade,812,53.3582663606545,-6.28422674373796,['46a']
8220DB000813,Charleville Road,813,53.3591900460994,-6.28095937438318,['46a']
8220DB000814,St Peter's Church,814,53.3605400151393,-6.2760970492999,['46a']
8220DB000817,Mater Hospital,817,53.3596462179702,-6.26961243844765,"['120', '38', '38a', '38b', '38d', '46a']"
8220DB000818,O'Connell Avenue,818,53.3584811208105,-6.26922394483129,"['120', '38', '38a', '38b', '38d', '46a']"
8220DB000819,Blessington Street,819,53.3563040208513,-6.26599198569768,"['120', '140', '155', '38', '38a', '38b', '38d', '4', '40', '46a', '9']"
8220DB000820,Carnlough Road,820,53.3619677951462,-6.29351397958423,['122']
8220DB000821,Drumcliffe Road,821,53.3645519035065,-6.29383143635438,['122']
8220DB000822,Mulroy Road,822,53.3671206776284,-6.29182032110427,['120']
8220DB000823,Kilkieran Road,823,53.3682351539515,-6.29118965054409,['120']
8220DB000824,Bannow Road,824,53.3697478518956,-6.29326309496115,['120']
8220DB000825,St Finbar's Road,825,53.3704294399345,-6.29693282591368,['120']
8220DB000826,Carnlough Road,826,53.3712178543801,-6.30116950755914,"['120', '40e']"
8220DB000827,Ventry Park,827,53.3712939490676,-6.30399186938362,"['120', '40e']"
8220DB000828,Broombridge Station,828,53.3710448241129,-6.29974867792338,['120']
8220DB000829,St Finbar's Road,829,53.3703968945613,-6.29591219523139,['120']
8220DB000830,Bannow Road,830,53.3696243716589,-6.2921709801525,['120']
8220DB000831,Mulroy Road,831,53.3676619691102,-6.29133281290901,['120']
8220DB000832,Drumcliffe Road,832,53.3636294546061,-6.2940636348917,['122']
8220DB000833,Swilly Road,833,53.3617761473218,-6.29331128383964,['122']
8220DB000834,Binns Bridge,834,53.3619754108391,-6.26042763798583,"['40', '40b', '40d']"
8220DB000835,St Brigid's Rd Lower,835,53.3626280166373,-6.26327096161364,"['40', '40b', '40d']"
8220DB000836,Claude Road,836,53.3632915018077,-6.26624916236241,"['40', '40b', '40d']"
8220DB000837,David Road,837,53.3637784077139,-6.26821283704861,"['40', '40b', '40d']"
8220DB000838,Whitworth Road,838,53.3643193961187,-6.27018939098137,"['40', '40b', '40d']"
8220DB000839,David Road,839,53.3637449204203,-6.26776341253996,"['40', '40b', '40d']"
8220DB000840,Claude Road,840,53.3632433495651,-6.26540966607283,"['40', '40b', '40d']"
8220DB000841,St Patrick's Road,841,53.3621221995308,-6.26063201536309,"['40', '40b', '40d']"
8220DB000842,Stephen's Green East,842,53.3372519750086,-6.25631338920494,"['11', '145', '155', '32x', '41x', '46a', '7b', '7d']"
8220DB000843,Stephen's Green East,843,53.3370024314237,-6.25645872069955,['37']
8220DB000844,Stephen's Green East,844,53.3376318720612,-6.25586239848744,['84x']
8220DB000845,Leeson St Lower,845,53.3354534454667,-6.25625161826536,"['11', '145', '155', '37', '41x', '46a', '7b', '7d']"
8220DB000846,Fitzwilliam Place,846,53.3334537330024,-6.25411090847852,"['11', '145', '155', '32x', '37', '41x', '46a', '7b', '7d', '84x', 'X25', 'X27', 'X28', 'X30']"
8220DB000847,Leeson St Upper,847,53.3316014451652,-6.25221961965172,"['11', '145', '155', '41x', '46a', '7b', '7d', 'X25', 'X27', 'X28', 'X30']"
8220DB000848,Sussex Road,848,53.3297279908182,-6.24888799835484,"['11', '116', '145', '155', '32x', '41x', '46a', '7b', '7d', '84x', 'X25', 'X27', 'X28', 'X30']"
8220DB000849,Appian Way,849,53.3278982725913,-6.24792700914128,['11']
8220DB000850,Chelmsford Road,850,53.3260857395333,-6.25119903116792,['11']
8220DB000851,Chelmsford Road,851,53.3250997052131,-6.25322101602938,['11']
8220DB000852,Ranelagh,852,53.3244292664946,-6.2528580853708,"['11', '44', '61']"
8220DB000853,Sandford Road,853,53.3225927700081,-6.2483695770726,"['11', '44', '61']"
8220DB000854,Larch Grove,854,53.3216316712804,-6.24657756321513,"['11', '44', '61']"
8220DB000855,Sandford Road,855,53.3193022984582,-6.24281536591718,"['11', '44', '61']"
8220DB000856,Clonskeagh Road,856,53.3176551118177,-6.24082667970814,['11']
8220DB000857,Clonskeagh Hospital,857,53.316567380099,-6.2383798303354,['11']
8220DB000858,Clonskeagh,858,53.3140944728148,-6.23830157217875,['11']
8220DB000881,Clonskeagh,881,53.3145635684128,-6.23841733156693,['11']
8220DB000882,Clonskeagh Hospital,882,53.3167046565389,-6.23915467649301,['11']
8220DB000883,Eglinton Road,883,53.3176851573317,-6.24103558331428,['11']
8220DB000884,Norwood Park,884,53.3199969912166,-6.24421284442789,"['11', '44', '61']"
8220DB000885,Hollybank Ave Lower,885,53.3212589673343,-6.24629262123036,"['11', '44', '61']"
8220DB000886,Merton Drive,886,53.3225973962252,-6.24868463259578,"['11', '44', '61']"
8220DB000887,Ranelagh,887,53.3242077457424,-6.25246180680158,"['11', '44', '61']"
8220DB00089,Lambay Road,89,53.3780271155011,-6.26159214988754,['13']
8220DB000893,Cowper Road,893,53.3160725163387,-6.25915818006416,['140']
8220DB000894,Cowper Road,894,53.3151931375359,-6.26419198051225,['140']
8220DB000895,Palmeston Villas,895,53.3139322642602,-6.26401801846624,"['140', '142']"
8220DB000896,Palmerston Park,896,53.3133721496325,-6.26135424684804,['140']
8220DB000897,Palmerston Road,897,53.3142996202644,-6.25838984601834,['140']
8220DB000903,Chelmsford Road,903,53.3255834292566,-6.25249565673739,['11']
8220DB000904,Appian Way,904,53.3274174409139,-6.24884751574073,['11']
8220DB000906,Leeson St Upper,906,53.3288107659747,-6.24763437727536,"['11', '116', '118', '145', '155', '32x', '41x', '46a', '46e', '7b', '7d', '84x', 'X25', 'X27', 'X28', 'X30']"
8220DB000907,Dartmouth Road,907,53.3297193588591,-6.25075010860462,"['11', '116', '118', '145', '155', '46a', '46e', '7b', '7d']"
8220DB000908,Grand Parade,908,53.3311542855373,-6.25237303421837,"['11', '116', '118', '145', '155', '46a', '46e', '7b', '7d']"
8220DB000909,Fitzwilliam Place,909,53.3331476599204,-6.25407836385524,"['11', '116', '118', '145', '155', '32x', '41x', '46a', '46e', '7b', '7d', '84x', 'X25', 'X27', 'X28', 'X30']"
8220DB000956,Naomh Barróg GAA,956,53.389831802114,-6.1529011457283,['27a']
8220DB000958,St. Donagh's,958,53.3909165331514,-6.16378528809514,['27a']
8220DB000959,Grange Road,959,53.3910184657041,-6.16690837598939,['27a']
8220DB000960,Tonlegee Road,960,53.3911576199048,-6.17187930562005,['27a']
8220DB000961,Millwood Villas,961,53.3910568299935,-6.17645454975119,['27a']
8220DB000962,Limewood,962,53.3907949286244,-6.18285597422979,['27a']
8220DB000969,Northside SC,969,53.3956824564187,-6.21548963822034,['27b']
8220DB000972,Aulden Grange,972,53.3969960428868,-6.23492379932207,['27b']
8220DB000979,St Canice's GNS,979,53.3899538085915,-6.29710063600169,['N4']
8220DB000980,Finglas Sports Centre,980,53.3898045691491,-6.30303046268453,"['40b', '40d', 'N4']"
8220DB000981,Finglas Garda Stn,981,53.3897809067965,-6.30706083246075,"['40b', '40d', 'N4']"
8220DB000983,Mellowes Road,983,53.3901416743217,-6.31095569222059,"['40b', '40d', 'N4']"
8220DB000984,Finglas Garda Stn,984,53.389911388028,-6.30675494955134,"['40b', '40d', 'N4']"
8220DB000985,Finglas Sports Centre,985,53.3899247513554,-6.30389772523609,"['40b', '40d', 'N4']"
8220DB000987,Finglas,987,53.3902199268642,-6.29937538551073,"['40', 'N4']"
8220DB000988,St Canice's GNS,988,53.3898902365438,-6.29579510810408,['N4']
8220DB000993,Astro Park,993,53.3977025969998,-6.22922517485573,['27b']
8220DB001005,Limewood,1005,53.390951406591,-6.18191708342303,['27a']
8220DB001013,Earlsfort Terrace,1013,53.335481505514,-6.25755688072012,"['142', '44', '61', 'X31', 'X32']"
8220DB001015,Adelaide Road,1015,53.3327303534192,-6.25996635506881,"['142', '44', '61']"
8220DB001016,South Richmond St,1016,53.3311593141903,-6.26441458035507,"['14', '140', '142', '15', '15a', '15b', '15d', '65', '65b', '83', '83a']"
8220DB001017,Rathmines Rd Lower,1017,53.3293693305756,-6.26432209650007,"['14', '140', '142', '15', '15a', '15b', '15d', '65', '65b', '83', '83a']"
8220DB001018,St Mary's College,1018,53.3275854590935,-6.26464974527369,"['14', '140', '142', '15', '15a', '15b', '15d', '65', '65b', '83', '83a']"
8220DB001019,Military Road,1019,53.3265475976236,-6.26497711774675,"['14', '140', '142', '15', '15a', '15b', '15d', '65', '65b', '83', '83a']"
8220DB001020,Rathmines,1020,53.3251383837983,-6.26510936447961,"['14', '140', '142', '15', '15a', '15b', '15d', '65', '65b', '83', '83a']"
8220DB001021,Rathmines Rd Upper,1021,53.3213802466097,-6.26565212597855,"['140', '142']"
8220DB001022,Summerville Park,1022,53.3195217438279,-6.26455667416159,"['140', '142']"
8220DB001023,Rathmines Close,1023,53.3170461890208,-6.26491228899517,"['140', '142']"
8220DB001024,Frankfort Avenue,1024,53.3158523430772,-6.26502075611143,"['140', '142']"
8220DB001025,Trinity Hall,1025,53.3115998654618,-6.26247682304632,['142']
8220DB001026,Orwell Park,1026,53.3091057707881,-6.26032708219737,['142']
8220DB001027,Dodder Walk,1027,53.3087379400355,-6.25791094112812,['142']
8220DB001028,South Hill,1028,53.3084991105613,-6.25571468112145,['142']
8220DB001062,South Hill,1062,53.3082596341826,-6.25531926586885,['142']
8220DB001063,Dodder Walk,1063,53.3085720815419,-6.25886311823074,['142']
8220DB001064,Dartry Road,1064,53.3094291383477,-6.26092922058896,['142']
8220DB001065,Trinity Hall,1065,53.3118290249026,-6.26278268022837,['142']
8220DB001066,Rathmines Rd Upper,1066,53.3137534805852,-6.26408530832734,['142']
8220DB001067,Rathmines Close,1067,53.3170507712305,-6.26522730644194,"['140', '142']"
8220DB001068,Church Avenue,1068,53.3205584447214,-6.26538523670879,"['140', '142']"
8220DB001069,Swan Centre,1069,53.3232852636138,-6.26561989541269,"['14', '140', '142', '15', '15a', '15b', '15d', '65', '65b', '83', '83a']"
8220DB001070,Rathmines,1070,53.3249801839839,-6.2653559829168,"['14', '140', '142', '15', '15a', '15b', '15d', '65', '65b', '83', '83a']"
8220DB001071,St Mary's College,1071,53.3272180361682,-6.26472471169489,"['14', '140', '142', '15', '15a', '15b', '15d', '65', '65b', '83', '83a']"
8220DB001072,South Richmond St,1072,53.3310269732615,-6.264585113955,"['14', '140', '142', '15', '15a', '15b', '15d', '65', '65b', '83', '83a']"
8220DB001074,Harcourt Luas,1074,53.333795459525,-6.26397720072462,"['44', '61']"
8220DB001076,Swan Centre,1076,53.3231305919137,-6.26549106260878,"['14', '140', '142', '15', '15a', '15b', '15d', '65', '65b', '83', '83a']"
8220DB001077,Rathmines Garda Stn,1077,53.3215729885363,-6.26654498499206,"['14', '15', '15a', '15b', '15d', '65', '65b', '83', '83a']"
8220DB001078,Rathgar Place,1078,53.3194127648961,-6.26880907035692,"['14', '15', '15a', '15b', '15d', '65', '65b']"
8220DB001079,Frankfort Avenue,1079,53.316654624195,-6.27075187426877,"['14', '15', '15a', '15b', '15d', '65', '65b']"
8220DB001080,Auburn Villas,1080,53.31490919872,-6.27187306349642,"['14', '15', '15a', '15b', '15d', '65', '65b']"
8220DB001081,Rathgar Village,1081,53.3126497028585,-6.27349517348769,"['14', '15', '15a', '15b', '15d', '65', '65b']"
8220DB001082,Terenure Road East,1082,53.3116759487051,-6.27577063203848,"['15', '15a', '65', '65b']"
8220DB001083,Brighton Road,1083,53.3111455612612,-6.27825325307522,"['15', '15a', '65', '65b']"
8220DB001085,St Joseph's BNS,1085,53.3100994852269,-6.28237731397302,"['15', '15a', '65', '65b']"
8220DB001086,Terenure Road West,1086,53.309669570517,-6.2856060830046,['15a']
8220DB001087,Greenlea Rd,1087,53.3103351137706,-6.28939126007516,['15a']
8220DB001088,Parkmore Drive,1088,53.3109735887857,-6.29317763255714,['15a']
8220DB001089,Lavarna Grove,1089,53.3116555855479,-6.29750266095145,['15a']
8220DB001090,Kimmage Road West,1090,53.3121038877678,-6.30057644060378,"['15a', '9']"
8220DB001091,Whitehall Road,1091,53.3124406081649,-6.30529057738076,['15a']
8220DB001117,Terenure Road West,1117,53.3118906498603,-6.29822868798698,['15a']
8220DB001118,Hazelbrook Road,1118,53.3113669927809,-6.29491782827776,['15a']
8220DB001119,Parkmore Drive,1119,53.3109356902429,-6.29241376344748,['15a']
8220DB001120,Terenure Garda Stn,1120,53.3101981052315,-6.2879860593036,['15a']
8220DB001121,Templeogue Road,1121,53.309001597639,-6.28540774793678,"['15', '49', '65', '65b']"
8220DB001122,Rathdown Park,1122,53.3072196342879,-6.288375352529,"['15', '49', '65', '65b']"
8220DB001123,Lakelands Park,1123,53.3055770247362,-6.29103703014003,"['15', '49', '65', '65b']"
8220DB001124,Terenure College,1124,53.3041728176727,-6.29340389752316,"['15', '49', '65', '65b']"
8220DB001159,Bushy Park House,1159,53.3023902202114,-6.29634084228481,"['15', '49', '65', '65b']"
8220DB001160,Terenure College,1160,53.3043935295039,-6.29312500171524,"['15', '49', '65', '65b']"
8220DB001161,Lakelands Park,1161,53.3060631361486,-6.29046240113905,"['15', '49', '65', '65b']"
8220DB001162,Rathdown Park,1162,53.3077322505985,-6.28776959714466,"['15', '49', '65', '65b']"
8220DB001163,Terenure Library,1163,53.3088733210509,-6.285863091797,"['15', '49', '65', '65b']"
8220DB001164,Terenure Road East,1164,53.310411636112,-6.28158440093588,"['15', '15a', '65', '65b']"
8220DB001165,Brighton Road,1165,53.3117124365726,-6.2764295038561,"['15', '15a', '65', '65b']"
8220DB001166,Winton Avenue,1166,53.3138905067959,-6.27290478405391,"['14', '15', '15a', '15b', '15d', '65', '65b']"
8220DB001167,Garville Avenue,1167,53.3159449091969,-6.27139594843825,"['14', '15', '15a', '15b', '15d', '65', '65b']"
8220DB001168,Spire View Lane,1168,53.3179291684229,-6.2700098825643,"['14', '15', '15a', '15b', '15d', '65', '65b']"
8220DB001169,Rathmines Park,1169,53.3200562645638,-6.26855785990232,"['14', '15', '15a', '15b', '15d', '65', '65b']"
8220DB001170,Rathmines Garda Stn,1170,53.3216895475268,-6.26652524878682,"['14', '15', '15a', '15b', '15d', '65', '65b', '83', '83a']"
8220DB001171,Gardiner Street Lwr,1171,53.3503176870278,-6.25426294905816,"['33', '33e', '41', '41b', '41c', '41d']"
8220DB001172,Railway Street,1172,53.3517433497818,-6.25525621732702,"['33', '33e', '41', '41b', '41c', '41d', '53']"
8220DB001173,Gardiner Street Lwr,1173,53.3537055683619,-6.25667832329378,"['33', '33e', '41', '41b', '41c', '41d']"
8220DB001174,Mountjoy Sq West,1174,53.3561865814553,-6.25854512541127,"['33', '33e', '41', '41b', '41c', '41d', '7', '7a']"
8220DB001175,Gardiner Street Upr,1175,53.3584131944675,-6.26084318209763,"['33', '33e', '41', '41b', '41c', '41d']"
8220DB001176,Coolock Lane Park,1176,53.3993550470663,-6.22187780324987,['27b']
8220DB001177,Clonshaugh Ind Est W,1177,53.4008973630857,-6.22525748280842,['27b']
8220DB001178,Clonshaugh Ind Est N,1178,53.4034534096934,-6.21884924282628,['27b']
8220DB001179,Clonshaugh Ind Est E,1179,53.3999311495941,-6.21892118309895,['27b']
8220DB001184,Moland Street,1184,53.3508599227616,-6.25385022800024,"['42', '43']"
8220DB001185,Oak Road,1185,53.3763670141145,-6.22151304646926,"['14', 'N4']"
8220DB001186,Belton Park Road,1186,53.3776431058381,-6.22632993786035,"['14', 'N4']"
8220DB001187,Celtic Park Road,1187,53.3786075086963,-6.23135544113246,"['14', 'N4']"
8220DB001188,Grace Park Heights,1188,53.3800184911148,-6.23559608319271,"['14', 'N4']"
8220DB001190,Grace Park Heights,1190,53.3801561172424,-6.23578580779385,"['14', 'N4']"
8220DB001191,Grace Park Meadows,1191,53.3792171883507,-6.23307384015293,"['14', 'N4']"
8220DB001192,Celtic Park Road,1192,53.3786331967669,-6.23066293111017,"['14', 'N4']"
8220DB001193,The Yard,1193,53.3779921991337,-6.22744276884893,"['14', 'N4']"
8220DB001194,Belton Park Road,1194,53.3775262086297,-6.22511728190606,"['14', 'N4']"
8220DB001195,Oak Road,1195,53.3763899322038,-6.2212415396415,"['14', 'N4']"
8220DB001196,Elm Mount Road,1196,53.377787506988,-6.21491529560223,"['15', '27', '27a', '27b', '27x', '42', '43']"
8220DB001197,Killester Avenue,1197,53.3792322771541,-6.21175833300337,"['15', '27', '27a', '27b', '27x', '42', '43']"
8220DB001198,Mornington Grove,1198,53.3825121951938,-6.20691559067275,"['15', '27', '27a', '27b', '27x', '42', '43']"
8220DB001199,Mask Avenue,1199,53.3849844627802,-6.20276761448287,"['15', '27', '27x', '42', '43']"
8220DB001200,Chanel College,1200,53.3869626486642,-6.20103048909782,"['15', '27', '27x', '42', '43']"
8220DB001201,Brookville Crescent,1201,53.3907898125526,-6.19614784293635,"['15', '27', '27x', '42', '43']"
8220DB001202,Newtown Cottages,1202,53.3925013826657,-6.1934290504328,"['15', '42', '43']"
8220DB001203,Newtown Road,1203,53.3967263536318,-6.18753567030054,"['15', '42', '43']"
8220DB001205,Clare Hall,1205,53.4015026048815,-6.18185822928636,"['42', '43']"
8220DB001218,Belcamp Lane,1218,53.3997058969251,-6.1842809197153,"['15', '27', '27x', '42', '43']"
8220DB001219,Danieli Road,1219,53.3813021270913,-6.2083343920684,"['15', '27', '27a', '27b', '27x', '42', '43']"
8220DB001220,Killester Avenue,1220,53.3787625062963,-6.21219890153812,"['15', '27', '27a', '27b', '27x', '42', '43']"
8220DB001221,Mayfield Park,1221,53.3768165000746,-6.21609825408432,"['15', '27', '27a', '27b', '27x', '42', '43']"
8220DB001222,Ardlea Road,1222,53.3840661618381,-6.20685028183386,['27b']
8220DB001223,Chanel Avenue,1223,53.3852506198797,-6.20851435239846,['27b']
8220DB001224,Maryfield Crescent,1224,53.3866441577972,-6.21093649115348,['27b']
8220DB001225,Maryfield Drive,1225,53.386859379217,-6.21390426931247,['27b']
8220DB001226,Ardmore Drive,1226,53.3885824619193,-6.21492967615912,['27b']
8220DB001227,Castlekevin Road,1227,53.3911373107668,-6.21507836605143,['27b']
8220DB001228,Kilbarron Road,1228,53.3924289765026,-6.21851273726681,['27b']
8220DB001229,Kilbarron Drive,1229,53.3943116011738,-6.22542628929809,['27b']
8220DB001231,Castletimon Road,1231,53.3954889982952,-6.22784342643992,['27b']
8220DB001232,Castletimon Park,1232,53.3952854835275,-6.23048341001443,['27b']
8220DB001233,Castletimon Drive,1233,53.3943619874017,-6.23124350090553,['27b']
8220DB001234,Ballyshannon Avenue,1234,53.3946878729395,-6.23261339665838,['27b']
8220DB001235,Kilbarron Road,1235,53.3947366847022,-6.22560408418948,['27b']
8220DB001237,Cromcastle Avenue,1237,53.3926786800006,-6.2189834723011,['27b']
8220DB001238,Kilmore Avenue,1238,53.3915662233617,-6.21491005695044,['27b']
8220DB001239,St John of Gods NS,1239,53.3890041898569,-6.21488195784464,['27b']
8220DB001240,Maryfield Crescent,1240,53.3868184280309,-6.21116973233947,['27b']
8220DB001241,Chanel Avenue,1241,53.3858794293715,-6.20908930804691,['27b']
8220DB001242,Ardbeg Road,1242,53.3844919489066,-6.2070729228125,['27b']
8220DB001243,Greencastle Avenue,1243,53.3949003131496,-6.19991374132285,"['27', '27x']"
8220DB001244,Cromcastle Green,1244,53.3929072416209,-6.22044750297315,['27b']
8220DB001245,Glin Avenue,1245,53.3979972686918,-6.20621940955615,"['27', '27x']"
8220DB001246,Kilbarron Park,1246,53.3934932334641,-6.22297928856429,['27b']
8220DB001247,Greencastle Road,1247,53.3950810945078,-6.19998129722475,"['27', '27x']"
8220DB001248,Coolock Ind Estate,1248,53.3929893358623,-6.1971675233716,"['27', '27x']"
8220DB001249,Coolock Drive,1249,53.395180964897,-6.20124021736032,"['27', '27x']"
8220DB001250,Bunratty Road,1250,53.3937390061016,-6.20755634582152,"['27', '27x']"
8220DB001251,St Luke's Church,1251,53.3934573359116,-6.22237931759755,['27b']
8220DB001253,Tranquility Grove,1253,53.3938639430734,-6.21469359247888,['27b']
8220DB001254,Bunratty Road,1254,53.3951173598318,-6.21136299643058,"['27', '27x']"
8220DB001255,Adare Park,1255,53.3943535024698,-6.20897407318865,"['27', '27x']"
8220DB001256,Bunratty Avenue,1256,53.3936309457732,-6.20694437999337,"['27', '27x']"
8220DB001258,Priorswood Road,1258,53.3981874224997,-6.19082713583407,"['27', '27x']"
8220DB001259,The Link Road,1259,53.3985904097534,-6.19488548450877,"['27', '27x']"
8220DB001260,Ferrycarrig Green,1260,53.4001778029103,-6.19881868347097,"['27', '27x']"
8220DB001262,Moat Avenue,1262,53.4020042292143,-6.20490781615746,"['27', '27x']"
8220DB001265,Marigold Avenue,1265,53.398221529722,-6.19070538139183,"['27', '27x']"
8220DB001266,Priorswood Road,1266,53.4020554115162,-6.20472518436224,"['27', '27x']"
8220DB001267,Ferrycarrig Park,1267,53.4008555065983,-6.20024887014065,"['27', '27x']"
8220DB001268,Belcamp Avenue,1268,53.399894267545,-6.19789824293475,"['27', '27x']"
8220DB001269,Marigold Road,1269,53.3984289595186,-6.19371931703876,"['27', '27x']"
8220DB001270,Newtown Road,1270,53.3964970026804,-6.18722962380558,"['15', '42', '43']"
8220DB001272,Newtown Cottages,1272,53.3928823822332,-6.19187918573735,"['15', '42', '43']"
8220DB001273,Coolock Leisureplex,1273,53.3911092146034,-6.19527728871211,"['15', '27', '27x', '42', '43']"
8220DB001274,St Brendans Church,1274,53.3889388170324,-6.19797019366675,"['15', '27', '27x', '42', '43']"
8220DB001275,Mask Avenue,1275,53.385585765333,-6.20211085795637,"['15', '27', '27x', '42', '43']"
8220DB001276,Mask Park,1276,53.3843305541152,-6.20291542866147,"['15', '27', '27x', '42', '43']"
8220DB001277,Mornington Grove,1277,53.3826814602086,-6.2062169636168,"['15', '27', '27a', '27b', '27x', '42', '43']"
8220DB001278,College Green,1278,53.3442366224365,-6.26130011810001,"['122', '123', '68', '68a', '9']"
8220DB001279,College Green,1279,53.3442604935982,-6.26170466649099,"['150', '16', '16d', '54a', '83', '83a']"
8220DB001280,McKelvey Avenue,1280,53.4001962883511,-6.30314329259751,"['140', '40', '40b']"
8220DB001282,S Great George's St,1282,53.3423417958814,-6.26450108272727,"['122', '16', '16d', '68', '68a', '9']"
8220DB001283,S Great George's St,1283,53.3418087219088,-6.26492822950029,"['14', '140', '15', '15a', '15b', '15d', '65', '65b', '83', '83a']"
8220DB001284,Redmond's Hill,1284,53.3381283509689,-6.26587355723321,"['122', '16', '16d', '65', '65b', '68', '68a', '83', '83a', '9']"
8220DB001285,Camden Street Lower,1285,53.3343784055905,-6.26512475425716,"['122', '14', '140', '15', '15a', '15b', '15d', '16', '16d', '65', '65b', '68', '68a', '83', '83a', '9']"
8220DB001286,Harrington Street,1286,53.3324996495011,-6.26572653484075,"['122', '68', '68a', '9']"
8220DB001287,Synge Street,1287,53.3324783725652,-6.26611779066566,"['16', '16d']"
8220DB001288,Victoria Street,1288,53.3323227536349,-6.2696376223493,"['122', '16', '16d', '68', '68a', '9']"
8220DB001289,Longwood Avenue,1289,53.3321293613202,-6.27303883277022,"['122', '16', '16d', '68', '68a', '9']"
8220DB001290,Clanbrassil St Upper,1290,53.3307310456567,-6.27516731880569,"['16', '16d', '49', '54a', '9']"
8220DB001291,Harold's Cross Road,1291,53.3284466111575,-6.27631044140605,"['16', '16d', '49', '54a', '9']"
8220DB001292,Harold's Cross Park,1292,53.3256246051373,-6.27819570402239,"['16', '16d', '49']"
8220DB001293,Parkview Avenue,1293,53.3228603639143,-6.2791026297328,"['16', '16d', '49']"
8220DB001294,Lady of the Rosary,1294,53.3206000262763,-6.27880330627749,"['16', '16d', '49']"
8220DB001295,Kenilworth Park,1295,53.3179148923088,-6.27958681712629,"['16', '16d', '49']"
8220DB001296,Mount Tallant Avenue,1296,53.3155627461367,-6.28164762292474,"['16', '16d', '49']"
8220DB001297,Whitton Road,1297,53.3124096124198,-6.28238961414191,"['16', '16d', '49']"
8220DB001298,Terenure,1298,53.3107469924743,-6.28302665100765,"['16', '16d', '49']"
8220DB001299,Rathfarnham Road,1299,53.308395702782,-6.28390135641409,"['16', '16d']"
8220DB001300,Rathdown Park,1300,53.3061507463875,-6.28342117670719,"['15b', '15d', '16', '16d']"
8220DB001335,War Memorial Hall,1335,53.3074174243568,-6.28400061997859,['16']
8220DB001336,Terenure,1336,53.3089009059773,-6.28403115972443,['16']
8220DB001337,Terenure Road North,1337,53.3111790373761,-6.28306934104816,"['16', '49']"
8220DB001338,Whitton Road,1338,53.3124303862649,-6.28258388430714,"['16', '49']"
8220DB001339,Harold's Cross Road,1339,53.3150238623425,-6.28229964697711,"['16', '49']"
8220DB001340,Mount Tallant Avenue,1340,53.3164701422733,-6.28099578090545,"['16', '49']"
8220DB001341,Kenilworth Park,1341,53.319227589464,-6.27899363575731,"['16', '49']"
8220DB001342,Lady of the Rosary,1342,53.3213454991002,-6.27938875924035,"['16', '49']"
8220DB001343,Harold's Cross Park,1343,53.3226672850436,-6.27942564411735,"['16', '49']"
8220DB001344,St Claire's NS,1344,53.3271710643832,-6.27760796335834,"['16', '49', '54a', '9']"
8220DB001345,Le Vere Terrace,1345,53.3287960763055,-6.27623629638877,"['16', '49', '54a', '9']"
8220DB001347,Clanbrassil St Upper,1347,53.3311830098588,-6.27534427274465,"['16', '49', '54a', '9']"
8220DB001348,Spencer St South,1348,53.3322495353642,-6.27388983282417,"['122', '16', '68', '68a', '9']"
8220DB001349,Carlisle Street,1349,53.3323857279067,-6.27088132287852,"['122', '16', '68', '68a', '9']"
8220DB001350,Harrington Street,1350,53.3325610927835,-6.26748081181982,"['122', '16', '68', '68a', '9']"
8220DB001352,Camden Street Lower,1352,53.3344454316098,-6.26540733380824,"['122', '16', '65', '65b', '68', '68a', '83', '83a', '9']"
8220DB001353,Pleasants Street,1353,53.3360095336323,-6.26541893799962,"['122', '14', '140', '142', '15', '15a', '15b', '15d', '16', '65', '65b', '68', '68a', '83', '83a', '9']"
8220DB001354,Aungier Street,1354,53.3390480888895,-6.26607651485756,"['14', '140', '142', '15', '15a', '15b', '15d']"
8220DB001355,Whitefriars Street,1355,53.3400962425911,-6.26583875541442,"['122', '16', '65', '65b', '68', '68a', '83', '83a', '9']"
8220DB001357,Exchequer Street,1357,53.342567894408,-6.26459703020812,"['122', '16', '65', '65b', '68', '68a', '83', '83a', '9']"
8220DB001358,Dame Street,1358,53.3443047133873,-6.26288938939078,"['150', '27', '40', '49', '54a', '56a', '65', '65b', '68', '68a', '69', '69x', '77a', '77x', '79', '79a']"
8220DB001359,College Green,1359,53.3443994063637,-6.26136859043361,"['122', '123', '13', '16', '83', '83a', '9']"
8220DB001360,Raymond Street,1360,53.3319833877872,-6.27661827752548,"['122', '68', '68a']"
8220DB001362,National Stadium,1362,53.3312039603929,-6.2799078735222,"['122', '68', '68a']"
8220DB001363,St Anne's Road S,1363,53.3318459312232,-6.2851672650217,"['122', '68', '68a']"
8220DB001364,Dolphin Avenue,1364,53.3323458739442,-6.28806012034702,"['122', '68', '68a']"
8220DB001365,Dolphins Barn Church,1365,53.3329015319263,-6.29045531304387,"['122', '68', '68a']"
8220DB001366,St Andrews Centre,1366,53.3351498676865,-6.29431459059535,"['122', '68', '68a']"
8220DB001367,Rialto Church,1367,53.3356852929589,-6.29656066348709,"['122', '68', '68a']"
8220DB001369,Mayfield Road,1369,53.3388672150275,-6.30224552041048,"['123', '68', '68a']"
8220DB001370,Hybreasal House,1370,53.3391885808018,-6.3052512455659,"['123', '68', '68a']"
8220DB001371,Suir Road,1371,53.3388757387437,-6.30790668870986,"['123', '68', '68a']"
8220DB001372,Goldenbridge Avenue,1372,53.3381036945503,-6.30987444642342,"['68', '68a']"
8220DB001373,Stephen's Road,1373,53.3377747591139,-6.31203486545014,"['68', '68a']"
8220DB001374,Southern Cross Ave,1374,53.3392177102615,-6.31301407116768,"['68', '68a']"
8220DB001375,Bulfin Road,1375,53.3395561606235,-6.31215973185628,"['68', '68a']"
8220DB001376,South Circular Road,1376,53.3395079105879,-6.30875267180085,"['68', '68a']"
8220DB001377,South Circular Road,1377,53.3391633646071,-6.30474165527077,"['123', '68', '68a']"
8220DB001378,Mayfield Road,1378,53.3388278749061,-6.30137608273123,"['123', '68', '68a']"
8220DB001379,Rialto Luas,1379,53.3373397013539,-6.29912265320936,"['68', '68a']"
8220DB001380,Rialto Church,1380,53.3356410022647,-6.29597679911966,"['122', '68', '68a']"
8220DB001381,St Andrews Centre,1381,53.3351237466286,-6.29374502629878,"['122', '68', '68a']"
8220DB001382,Dolphins Barn Church,1382,53.3331731706723,-6.29059460205889,"['122', '68', '68a']"
8220DB001383,Dolphin Avenue,1383,53.3322710783564,-6.28660666292568,"['122', '68', '68a']"
8220DB001384,Dufferin Avenue,1384,53.3313561981853,-6.28236415375612,"['122', '68', '68a']"
8220DB001385,Griffith College,1385,53.3318004002752,-6.27826227183304,"['122', '68', '68a']"
8220DB001386,Clogher Road,1386,53.3295526186293,-6.28444849901101,['150']
8220DB001387,Aughavanagh Road,1387,53.3280405493699,-6.28680623917289,['150']
8220DB001388,Rutland Avenue,1388,53.3267732721488,-6.29119578868491,['150']
8220DB001389,Pearse College,1389,53.3259359420551,-6.29549287147593,['150']
8220DB001396,Crumlin Pool,1396,53.3249002682397,-6.31496013722762,['150']
8220DB001397,Kildare Road,1397,53.3250914014158,-6.31385670005281,['150']
8220DB001398,Windmill Road,1398,53.3253013793664,-6.31027545066514,['150']
8220DB001399,Monasterboice Road,1399,53.3251428005791,-6.3054327031037,['150']
8220DB001401,Clogher Road,1401,53.3253968158949,-6.29865198476896,['150']
8220DB001402,Pearse College,1402,53.3259879311191,-6.29598621972534,['150']
8220DB001403,Rutland Avenue,1403,53.3271540648883,-6.28954413336682,['150']
8220DB001404,Aughavanagh Road,1404,53.3282005181194,-6.28667972051605,['150']
8220DB001405,Parnell Road,1405,53.3298216746258,-6.28440767368214,['150']
8220DB001406,Dolphin's Barn,1406,53.3331529314539,-6.29169152684095,"['151', '27', '56a', '77a']"
8220DB001407,Crumlin Road,1407,53.3315385027721,-6.2944436769088,"['151', '27', '56a', '77a']"
8220DB001409,Loreto College,1409,53.3303667447669,-6.29735815557584,"['151', '27', '56a', '77a']"
8220DB001410,Keeper Road,1410,53.3314169223644,-6.29977873066411,['122']
8220DB001411,Brickfield Drive,1411,53.3320510264275,-6.30328200417231,['122']
8220DB001412,Slievenamon Road,1412,53.3326816543077,-6.30591464267832,['122']
8220DB001413,Brickfields Park,1413,53.3334413912394,-6.30878249418879,['122']
8220DB001414,Benbulbin Road,1414,53.3333476064743,-6.31231480140324,['122']
8220DB001415,Sperrin Road,1415,53.3324432485395,-6.31637452092598,['122']
8220DB001417,Lady Of Mercy School,1417,53.3310322127945,-6.31956811898513,['122']
8220DB001418,Cooley Road,1418,53.330029759237,-6.32306077006054,['122']
8220DB001419,Brandon Road,1419,53.3277177272266,-6.32291124306547,"['122', '123']"
8220DB001423,Crumlin Hospital,1423,53.3249994890353,-6.31944492192624,"['122', '123']"
8220DB001424,Crumlin Hospital,1424,53.3256625125872,-6.31674662153121,"['122', '123', '151', '27', '56a', '77a', '77x']"
8220DB001425,Cooley Road,1425,53.3270131719777,-6.31819475352092,"['122', '123']"
8220DB001426,Curlew Road,1426,53.3292748788465,-6.32242977116858,"['122', '123']"
8220DB001427,Mourne Road,1427,53.330271158414,-6.32233061937903,['122']
8220DB001428,Lady of Mercy School,1428,53.3313588786132,-6.31914988401264,['122']
8220DB001429,Sperrin Road,1429,53.332593207169,-6.31617341926301,['122']
8220DB001430,Belbulbin Road,1430,53.3335737954755,-6.31114968646874,['122']
8220DB001432,Brickfields Park,1432,53.3334987403076,-6.30838982573814,['122']
8220DB001433,Slievenamon Road,1433,53.3325721532017,-6.30579886199231,['122']
8220DB001434,Keeper Road,1434,53.3319924475924,-6.3023233791527,['122']
8220DB001435,Keeper Road,1435,53.3313880462705,-6.29901413246611,['122']
8220DB001436,Herberton Road,1436,53.3308849576952,-6.29651171993402,"['151', '27', '56a', '77a']"
8220DB001438,St Thomas Road,1438,53.3363829768561,-6.27941413618381,['150']
8220DB001439,Rutledge Terrace,1439,53.3340584156818,-6.28276609921306,['150']
8220DB001440,Donore Avenue,1440,53.3319900593827,-6.28331465216842,['150']
8220DB001441,Bangor Road,1441,53.3248749009922,-6.30302633322182,['150']
8220DB001442,Clonard Road,1442,53.3251668742259,-6.30712815477075,['150']
8220DB001443,Civic Offices,1443,53.3451293906946,-6.26953955862604,"['145', '37', '39', '39a', '39x', '51d', '69', '69x', '70', '79', '79a', '83', '83a']"
8220DB001444,Merchant's Quay,1444,53.3450755916898,-6.27451319656612,"['145', '26', '37', '39', '39a', '51d', '52', '69', '69x', '70', '79', '79a', 'C1', 'C2', 'C3', 'C4', 'C5', 'C6', 'P29', 'X25', 'X27', 'X28', 'X30', 'X31', 'X32']"
8220DB001445,Usher's Quay,1445,53.3459879474282,-6.27980838755496,"['145', '26', '37', '39', '39a', '51d', '52', '69', '69x', '70', '79', '79a', 'C1', 'C2', 'C3', 'C4', 'C5', 'C6', 'P29', 'X25', 'X27', 'X28', 'X30', 'X31', 'X32']"
8220DB001447,Victoria Quay,1447,53.3465025271141,-6.28558538591734,"['P29', 'X25', 'X27', 'X28', 'X30', 'X31', 'X32']"
8220DB001449,Phoenix Park Gate,1449,53.348152829997,-6.29789609467717,"['26', '69', 'C5', 'C6']"
8220DB001450,Conyngham Road,1450,53.3481554042365,-6.30186141311765,"['26', '69', 'C5', 'C6']"
8220DB001451,Bridgewater House,1451,53.3482782789373,-6.30544644496584,"['26', '69', 'C5', 'C6']"
8220DB001452,Islandbridge,1452,53.3454209055027,-6.30803799944731,['69']
8220DB001453,Galtymore Road,1453,53.3345361691524,-6.30675710143034,['123']
8220DB001454,Suir Road Luas,1454,53.3377648667264,-6.30753019851207,['123']
8220DB001455,Slievenamon Road,1455,53.3353851151121,-6.30577746031333,['123']
8220DB001456,Good Counsel GAA,1456,53.3348733091399,-6.30898110692308,['123']
8220DB001457,Benbulbin Road,1457,53.3353026587009,-6.31264303832715,['123']
8220DB001458,Davitt House,1458,53.3347706199242,-6.31697357484939,['123']
8220DB001459,Drimnagh CU,1459,53.3340633154275,-6.3197192372277,['123']
8220DB001460,Carrow Road,1460,53.3323561008265,-6.32103258420219,['123']
8220DB001462,Galtymore Park,1462,53.3304629315901,-6.3238245198261,['123']
8220DB001463,Galtymore Road,1463,53.3306239948605,-6.3237731617296,['123']
8220DB001464,Davitt House,1464,53.33489880154,-6.31650303670365,['123']
8220DB001465,Good Counsel GAA,1465,53.3347967644646,-6.30865378723672,['123']
8220DB001466,Galtymore Drive,1466,53.3345289258302,-6.30624685358973,['123']
8220DB001467,Slievenamon Road,1467,53.3356573760253,-6.3059618778838,['123']
8220DB001468,Suir Road Luas,1468,53.3375497001774,-6.30756875280577,['123']
8220DB001469,Benbulbin Road,1469,53.3352591593221,-6.31338053815388,['123']
8220DB001471,Islandbridge,1471,53.3455323202016,-6.30828892049287,['69']
8220DB001472,Conyngham Road,1472,53.3484294679803,-6.30596616966109,"['26', '68', '69', 'C5', 'C6']"
8220DB001473,Phoenix Park Gate,1473,53.348305978475,-6.29855089897711,"['26', '68', '69', 'C5', 'C6']"
8220DB001474,Parkgate Street,1474,53.3479479159606,-6.29236170464089,"['26', '69', 'C5', 'C6']"
8220DB001476,Sarsfield Quay,1476,53.3470736855785,-6.28467627539544,"['145', '26', '51d', '52', '69', '79', '79a', 'C1', 'C2', 'C3', 'C4', 'C5', 'C6', 'P29', 'X25', 'X26', 'X27', 'X28', 'X30', 'X31', 'X32']"
8220DB001478,Four Courts,1478,53.3456082018192,-6.27280948087176,"['145', '26', '37', '39', '39a', '39x', '51d', '52', '70', '83', '83a', 'C1', 'C2', 'C3', 'C4', 'C5', 'C6', 'P29', 'X25', 'X26', 'X27', 'X28', 'X30', 'X31', 'X32']"
8220DB001479,Ormond Quay,1479,53.3459880936241,-6.26863362845988,"['145', '151', '26', '37', '39', '39a', '51d', '52', '70', '83', '83a', 'C1', 'C2', 'C3', 'C4', 'C5', 'C6', 'P29', 'X25', 'X26', 'X27', 'X28', 'X30', 'X31', 'X32']"
8220DB001480,Ormond Quay Upper,1480,53.3457659646548,-6.2706702977241,"['69', '69x', '79', '79a']"
8220DB001481,Melrose Avenue,1481,53.3650538686145,-6.23989609720876,['123']
8220DB001482,Marino Institute,1482,53.3716643308567,-6.23652756050988,['123']
8220DB001484,Philipsburgh Avenue,1484,53.3636977091106,-6.23996702932875,['123']
8220DB001485,Philipsburgh Avenue,1485,53.3640458177018,-6.23980241692241,['123']
8220DB001486,Morrogh Terrace,1486,53.3709747783061,-6.238524809022,['123']
8220DB001487,Marino Institute,1487,53.3718192548952,-6.23667144996368,['123']
8220DB001488,Turlogh Parade,1488,53.3710888554265,-6.23468777023618,['123']
8220DB001489,Marino Church,1489,53.3701586652352,-6.2319610076023,['123']
8220DB001490,Árd Scoil Rís,1490,53.3688768216928,-6.22855766174823,['123']
8220DB001491,Griffith Avenue,1491,53.3684677618883,-6.22764290979832,['123']
8220DB001492,Marino Church,1492,53.3702573904224,-6.23255805716228,['123']
8220DB001493,Turlogh Parade,1493,53.3712134044616,-6.23520862720412,['123']
8220DB001494,Croydon Park,1494,53.3706730149288,-6.23574194163247,['123']
8220DB001495,Croydon Park Avenue,1495,53.3687559405712,-6.23556569739483,['123']
8220DB001496,Marino Green,1496,53.3671481166151,-6.23381383826087,['123']
8220DB001499,Brian Road,1499,53.3657794887098,-6.23729658684479,['123']
8220DB001500,Connolly,1500,53.351039588906,-6.25016257775473,"['151', '27']"
8220DB001505,Parnell Street,1505,53.3540289631842,-6.25789698487135,['123']
8220DB001506,Finglas Road,1506,53.3667778214189,-6.27237390919524,"['140', '40', '40b', '40d']"
8220DB001507,St Vincent's School,1507,53.3683905203143,-6.27450269164134,"['140', '40', '40b', '40d']"
8220DB001508,Glasnevin Cemetery,1508,53.3699109022656,-6.27833355115676,"['140', '40', '40b', '40d']"
8220DB001509,Slaney Road,1509,53.3729258340444,-6.28422366048827,"['140', '40', '40b', '40d']"
8220DB001510,Ballyboggan Road,1510,53.3769069295235,-6.28731023718707,"['140', '40', '40b', '40d']"
8220DB001511,Tolka Vale,1511,53.3782345231803,-6.28775298457063,"['140', '40', '40b', '40d']"
8220DB001512,Prospect Hill,1512,53.382174322341,-6.29172883549392,"['140', '40b', '40d']"
8220DB001514,Drogheda Mall,1514,53.3894651562236,-6.30002191446055,['40d']
8220DB001515,Marino Park,1515,53.366114316144,-6.23319541821684,['123']
8220DB001518,Kildonan Road,1518,53.3906003885119,-6.31161412406024,"['40', '40b']"
8220DB001519,Kildonan Park,1519,53.3924448695621,-6.31175161798522,"['40', '40b']"
8220DB001520,Barry Road,1520,53.393920198927,-6.31184358657781,"['40', '40b']"
8220DB001521,Plunkett Green,1521,53.3972212992992,-6.31075049408939,"['40', '40b']"
8220DB001523,Plunkett Avenue,1523,53.3978788506155,-6.30958155709758,"['40', '40b']"
8220DB001524,Barry Road,1524,53.3955562648948,-6.31059088714385,"['40', '40b']"
8220DB001525,Casement Drive,1525,53.3940692958025,-6.31158206161735,"['40', '40b']"
8220DB001526,Kildonan Park,1526,53.3923069370332,-6.31153153662505,"['40', '40b']"
8220DB001528,St David's Terrace,1528,53.3561954281573,-6.29400002572947,['37']
8220DB001529,Finglas Village,1529,53.3884588269294,-6.29815260689773,"['40b', '40d']"
8220DB001531,Clearwater SC,1531,53.3837436640296,-6.29336474093081,"['140', '40', '40b', '40d']"
8220DB001532,Prospect Hill,1532,53.3817441172312,-6.29055850090001,"['140', '40', '40b', '40d']"
8220DB001533,Tolka Vale,1533,53.3789678847602,-6.28749808800206,"['140', '40', '40b', '40d']"
8220DB001534,Ballyboggan Road,1534,53.3753328391602,-6.28597560287492,"['140', '40', '40b', '40d']"
8220DB001535,The Willows,1535,53.3723059581397,-6.28236994393795,"['140', '40', '40b', '40d']"
8220DB001536,Glasnevin Cemetery,1536,53.3695033971709,-6.27687723281354,"['140', '40', '40b', '40d']"
8220DB001537,St Vincent's School,1537,53.3680662049802,-6.27320839893696,"['140', '40', '40b', '40d']"
8220DB001538,Clearwater SC,1538,53.384474141314,-6.29479375491459,"['140', '40b', '40d']"
8220DB001539,Glasanaon Road,1539,53.3831357990682,-6.27919801572368,"['83', '83a']"
8220DB001540,Johnstown Park,1540,53.3843403099797,-6.28420062884392,"['83', '83a']"
8220DB001547,McKee Avenue Est,1547,53.395241165818,-6.30168636640579,['40']
8220DB001548,McKee Avenue North,1548,53.3961101450127,-6.3027494932783,['40']
8220DB001549,Plunkett Road,1549,53.3974326561143,-6.30663678307133,"['40', '40b']"
8220DB001558,McKelvey Avenue,1558,53.3998175109952,-6.30305309451753,"['140', '40', '40b']"
8220DB001559,Plunkett Road,1559,53.3973411212982,-6.30652011500245,"['40', '40b']"
8220DB001560,St Margaret's Road,1560,53.3970075423561,-6.30454838145874,"['140', '40b']"
8220DB001566,Johnstown Park,1566,53.3844074206099,-6.28386719661227,"['83', '83a']"
8220DB001567,Griffith Drive,1567,53.3840139569899,-6.28026002177014,"['83', '83a']"
8220DB001573,Wellmount Drive,1573,53.3840241647337,-6.31246066242428,"['40', '40e']"
8220DB001574,Cardiffsbridge SC,1574,53.3855939979934,-6.31287964710483,"['40', '40e']"
8220DB001575,Coláiste Íde,1575,53.3870661425734,-6.31274625802593,"['40', '40e']"
8220DB001576,Cappagh Road,1576,53.3893174054929,-6.31304812471738,"['40d', '40e', 'N4']"
8220DB001577,Abbottstown Road,1577,53.3898858080568,-6.31574701686641,"['40d', '40e', 'N4']"
8220DB001578,Ratoath Drive,1578,53.3903851294561,-6.31801267740448,"['40d', '40e', 'N4']"
8220DB001584,Abbottstown Road,1584,53.3898854600317,-6.31508548205004,"['40d', '40e', 'N4']"
8220DB001585,Cardiffsbridge Road,1585,53.3887680197466,-6.31233314490443,"['40', '40e']"
8220DB001586,Coláiste Íde,1586,53.3865250406216,-6.31261731806409,"['40', '40e']"
8220DB001587,Wellmount Drive,1587,53.383466430316,-6.31179120650066,['40']
8220DB001591,Wellmount Road,1591,53.3871387918549,-6.29949821324408,['40']
8220DB001592,Tolka Valley Road,1592,53.3797209189472,-6.28924160522579,['40']
8220DB001593,Tolka Valley Park,1593,53.3789147733968,-6.29445974940208,['40']
8220DB001594,St Helena's Road,1594,53.3807131944326,-6.29766484522035,['40']
8220DB001596,St Malachy's NS,1596,53.3830410953037,-6.30081905725311,['40']
8220DB001597,Valeview Gardens,1597,53.3804552155962,-6.30923466596558,['40']
8220DB001598,Valeview Drive,1598,53.380242178032,-6.30562044005666,['40']
8220DB001599,Cardiffsbridge Road,1599,53.3808997507127,-6.31079541615781,['40']
8220DB001600,Deanstown Avenue,1600,53.3835970178885,-6.31276318351177,['40e']
8220DB001604,Rathvilly Road,1604,53.3837454770678,-6.31627504223629,['40e']
8220DB001605,Albert College Pk,1605,53.3882529721605,-6.26079959029375,['N4']
8220DB001606,St Helena's Road,1606,53.380370683578,-6.30644208983682,['40']
8220DB001607,Dunsink Drive,1607,53.3821613835455,-6.30342464753533,['40']
8220DB001608,St Malachy's NS,1608,53.3830498568553,-6.29954091872954,['40']
8220DB001609,Cloonlara,1609,53.3803842380777,-6.29728713957771,['40']
8220DB001610,Tolka Valley Park,1610,53.3788077072738,-6.29640307065506,['40']
8220DB001614,Church Street Upper,1614,53.3512573878244,-6.27375276357377,"['83', '83a']"
8220DB001615,Church Street,1615,53.3478271653639,-6.27459733233129,"['83', '83a']"
8220DB001616,St Michan's Church,1616,53.3472850722963,-6.2750247730075,"['83', '83a']"
8220DB001617,Capuchin Church,1617,53.3493312079573,-6.27480696433908,"['83', '83a']"
8220DB001618,Church Street Upper,1618,53.350887058124,-6.27424841870736,"['83', '83a']"
8220DB001619,Constitution Hill,1619,53.3529126950441,-6.27323519870157,"['83', '83a']"
8220DB001620,Whitehall Church,1620,53.3832628572909,-6.24410591269657,"['1', '33', '33e', '41', '41b', '41c', '41d']"
8220DB001641,Ellenfield Park,1641,53.3865272844368,-6.24239296645785,"['1', '16d', '33', '41', '41b', '41c', '41d']"
8220DB001642,Whitehall Church,1642,53.383947889346,-6.24362672228704,"['1', '16d', '33', '41', '41b', '41c', '41d']"
8220DB001643,St Aidan's School,1643,53.3848022173771,-6.25100309535714,"['44', 'N4']"
8220DB001644,DCU Collins Avenue,1644,53.3868700413861,-6.25657120617438,['N4']
8220DB001646,DCU Collins Avenue,1646,53.3871546494721,-6.25698053714177,['N4']
8220DB001647,Blackhall Place,1647,53.3483510635702,-6.28225172620266,"['37', '39', '39a', '39x', '70']"
8220DB001648,Stoneybatter,1648,53.3510913675325,-6.28280248510498,"['37', '39', '39a', '70']"
8220DB001649,Manor Street,1649,53.3525701350153,-6.28438044847899,"['37', '39', '39a', '39x', '70']"
8220DB001654,St David's Terrace,1654,53.3561451797316,-6.29425742995527,['37']
8220DB001655,Blackhorse Avenue,1655,53.3567321718491,-6.2969682741151,['37']
8220DB001656,McKee Park,1656,53.3572972790023,-6.29877863774799,['37']
8220DB001657,Dunard Walk,1657,53.3583921080657,-6.30307699923697,['37']
8220DB001658,Skreen Road,1658,53.3619888217461,-6.309515187906,['37']
8220DB001659,Croaghpatrick Road,1659,53.3632599650514,-6.30471669903598,['37']
8220DB001660,Cabra Garda Station,1660,53.3651865517894,-6.30937355306513,"['122', '37', '38', '38a', '38b', '38d', '39', '39a', '70']"
8220DB001661,Our Lady's Church,1661,53.3664436172429,-6.31309553779383,"['122', '37', '38', '38a', '38b', '38d', '39', '39a', '70']"
8220DB001662,Baggot Road,1662,53.3676029376041,-6.31754290494094,"['37', '38', '38a', '38b', '38d', '39', '39a', '39x', '70']"
8220DB001664,Ashtown Grove,1664,53.3694085180304,-6.32385863047436,"['37', '38', '38a', '38b', '38d', '39', '39a', '70']"
8220DB001665,Kempton,1665,53.3706578377553,-6.32770193003476,"['37', '38', '38a', '38b', '38d', '39', '39a', '70']"
8220DB001666,Ashtown Roundabout,1666,53.3715971506497,-6.33059573112205,"['37', '38', '38a', '38b', '38d', '39', '39a', '39x', '70']"
8220DB001667,Castleknock Road,1667,53.3708697670492,-6.334501519476,['37']
8220DB001668,Old Race Course,1668,53.3708427403695,-6.34030355015355,['37']
8220DB001694,Old Race Course,1694,53.3710173888675,-6.33993607589944,['37']
8220DB001695,Ashtown Gate,1695,53.3710101423775,-6.33425558646772,['37']
8220DB001696,Ashtown Roundabout,1696,53.3715415173194,-6.32983144331408,"['37', '38', '38a', '38b', '38d', '39', '39a', '39x', '70']"
8220DB001697,Kempton,1697,53.3708011457473,-6.32766625894212,"['37', '38', '38a', '38b', '38d', '39', '39a', '70']"
8220DB001698,Ashtown Grove,1698,53.3695772972038,-6.32371675132506,"['37', '38', '38a', '38b', '38d', '39', '39a', '70']"
8220DB001699,Baggot Road,1699,53.3687436056737,-6.32131499536444,"['37', '38', '38a', '38b', '38d', '39', '39a', '70']"
8220DB001700,Baggot Road,1700,53.3677088280588,-6.31740348546712,"['122', '37', '38', '38a', '38b', '38d', '39', '39a', '39x', '70']"
8220DB001701,Our Lady's Church,1701,53.3665672561436,-6.31294038272438,"['122', '37', '38', '38a', '38b', '38d', '39', '39a', '70']"
8220DB001702,Navan Road Church,1702,53.3656108301747,-6.3101381385887,"['122', '37', '38', '38a', '38b', '38d', '39', '39a', '70']"
8220DB001703,Cabra Garda Station,1703,53.3647353990233,-6.30734783376237,"['37', '38', '38a', '38b', '38d', '39', '39a', '70']"
8220DB001704,Skreen Road,1704,53.3630522662101,-6.30528089867264,['37']
8220DB001705,Ardpatrick Road,1705,53.3621807471622,-6.30847083369407,['37']
8220DB001706,Blackhorse Avenue,1706,53.3600698256017,-6.30729237527241,['37']
8220DB001707,Dunard Walk,1707,53.358428266351,-6.30245957267127,['37']
8220DB001708,Mc Kee Park,1708,53.3573323544768,-6.29871714548449,['37']
8220DB001709,Glenbeigh Avenue,1709,53.356868201679,-6.29705299143723,['37']
8220DB001710,Aughrim Street,1710,53.3555699040276,-6.29174149147943,['37']
8220DB001711,Holy Family Church,1711,53.3545779754912,-6.28963290156867,['37']
8220DB001712,Aughrim Court,1712,53.3533339170054,-6.2862425917638,['37']
8220DB001713,Manor Street,1713,53.3519078200192,-6.28332547345319,"['37', '39', '39a', '39x', '70']"
8220DB001714,Stoneybatter,1714,53.3506378069393,-6.28188938800197,"['37', '39', '39a', '70']"
8220DB001715,Blackhall Place,1715,53.3477119821806,-6.28218729951852,"['37', '39', '39a', '39x', '70']"
8220DB001724,Clontarf Road,1724,53.3657153153797,-6.17444158948892,['130']
8220DB001725,Doyle's Lane,1725,53.3637602626945,-6.17707965691359,['130']
8220DB001726,Dollymount Park,1726,53.3622913896707,-6.17918587611657,['130']
8220DB001727,Bull Island,1727,53.3604468636668,-6.18318608956806,['130']
8220DB001728,Wooden Bridge,1728,53.3596562743577,-6.18616459625125,['130']
8220DB001729,Clontarf Bus Garage,1729,53.3584969058401,-6.19031550974047,"['130', '32x']"
8220DB001730,Vernon Court,1730,53.3582310907444,-6.19412792894385,['130']
8220DB001731,John the Baptist Ch,1731,53.3590767534218,-6.19655620427261,"['130', '32x']"
8220DB001732,Oultan Road,1732,53.3600629107631,-6.20234423812548,['130']
8220DB001733,Clontarf Baths,1733,53.3602126155175,-6.20631955975872,['130']
8220DB001734,Castle Avenue,1734,53.3603909611143,-6.21101490848604,['130']
8220DB001735,The Stiles Road,1735,53.3611433270935,-6.21443920712782,['130']
8220DB001736,St Lawrence Road,1736,53.3621421815557,-6.21692174662779,['130']
8220DB001737,Alfie Byrne Road,1737,53.3628580243677,-6.21971672090969,['130']
8220DB001738,Clontarf Rd Pitches,1738,53.3634508756384,-6.22391433414585,"['130', '32x', 'N4']"
8220DB001739,Clontarf Station,1739,53.3638851946336,-6.22652585924785,"['130', 'N4']"
8220DB001740,Clontarf Road,1740,53.3641416167489,-6.22684578734125,"['130', 'N4']"
8220DB001741,Alfie Byrne Road,1741,53.3631169030887,-6.22080282346908,"['130', '32x']"
8220DB001742,St Lawrence Road,1742,53.3621257933182,-6.21642658486156,['130']
8220DB001743,The Court,1743,53.3611356864334,-6.21392866651192,['130']
8220DB001744,Scoil Uí Chonaill,1744,53.3603486398978,-6.20879297700673,['130']
8220DB001745,Clontarf Baths,1745,53.3603470796637,-6.2056978849681,['130']
8220DB001746,Oultan Road,1746,53.3602565190504,-6.20266663792756,['130']
8220DB001747,John the Baptist Ch,1747,53.3593509922763,-6.19686014145269,"['130', '32x']"
8220DB001748,Fortview Avenue,1748,53.3582570201159,-6.19346576182185,['130']
8220DB001749,Clontarf Bus Garage,1749,53.3585903733516,-6.19055194015273,"['130', '32x']"
8220DB001750,St Anne's Park,1750,53.3688677027289,-6.17780832862961,['130']
8220DB001751,Wooden Bridge,1751,53.3598698762831,-6.1854343270318,['130']
8220DB001752,Bull Island,1752,53.36112759171,-6.18184991858559,['130']
8220DB001753,Dollymount Park,1753,53.36272396285,-6.17867157318106,['130']
8220DB001754,Doyle's Lane,1754,53.364115656472,-6.17680903357462,['130']
8220DB001755,Seapark,1755,53.3664299769752,-6.18712407524484,['130']
8220DB001756,Dollymount Avenue,1756,53.3672099080456,-6.18285319862781,['130']
8220DB001757,Park Lawn,1757,53.3686296418903,-6.18223672762254,['130']
8220DB001758,Mount Prospect Ave,1758,53.3681296759045,-6.17539029232819,['130']
8220DB001759,The Oaks,1759,53.3660002227331,-6.17426410843024,['130']
8220DB001760,Seapark Road,1760,53.3659722446543,-6.18775962192302,['130']
8220DB001761,Seafield Road Junc,1761,53.3638373979459,-6.18804557985461,['130']
8220DB001762,Seafield Road,1762,53.3637511873709,-6.1912498353921,['130']
8220DB001763,Vernon Avenue,1763,53.3644067789443,-6.19536937525232,['130']
8220DB001764,Blackheath Park,1764,53.3658929687458,-6.19557704044876,['130']
8220DB001765,Blackheath Grove,1765,53.3665514240828,-6.20228141366135,['130']
8220DB001767,Clontarf Castle,1767,53.3638273181063,-6.20522105323386,['130']
8220DB001769,Park Lawn,1769,53.3688857835725,-6.18194028646471,['130']
8220DB001770,Dollymount Avenue,1770,53.3670834687822,-6.18281349818957,['130']
8220DB001771,St Gabriel's Road,1771,53.3660419203349,-6.18524714015879,['130']
8220DB001772,Clontarf Cemetery,1772,53.3650107475168,-6.20502103771957,['130']
8220DB001773,Blackheath Park,1773,53.3668109134456,-6.20339753583727,['130']
8220DB001774,Blackheath Avenue,1774,53.3661362371245,-6.19740006471556,['130']
8220DB001775,Vernon Avenue,1775,53.364439983337,-6.1951876537006,['130']
8220DB001776,Seafield Road,1776,53.3638160053906,-6.19196835160377,['130']
8220DB001777,Seafield Avenue,1777,53.3653120792186,-6.19104846595943,['130']
8220DB001778,Mount Prospect Ave,1778,53.3666136880735,-6.18915998517218,['130']
8220DB001782,Brookwood Grove,1782,53.3823894993434,-6.19817165074127,['27a']
8220DB001783,McAuley Road,1783,53.3838032158953,-6.195962181655,['27a']
8220DB001784,Gorsefield Court,1784,53.3846209812862,-6.19298101335639,['27a']
8220DB001785,McAuley Park,1785,53.3825960633104,-6.1916236149297,['27a']
8220DB001786,McAuley Park,1786,53.381994136399,-6.19223540172869,['27a']
8220DB001788,Millbrook Road,1788,53.3916140510653,-6.17880643395268,['27a']
8220DB001789,Clonrosse Drive,1789,53.3942624574283,-6.17860311918013,['27a']
8220DB001791,O'Tooles GAA,1791,53.3965874453486,-6.18194749011514,['27a']
8220DB001792,Millbrook Road,1792,53.3935247615088,-6.17855943972049,['27a']
8220DB001793,Milbrook Grove,1793,53.3916843046749,-6.17869818119331,['27a']
8220DB001794,Thornhill Lane,1794,53.3694410695116,-6.17945199515191,['130']
8220DB001795,Rosecourt,1795,53.3615033956249,-6.29686814224352,"['38', '38a', '38b', '38d']"
8220DB001796,McAuley Park,1796,53.3817893455832,-6.19117676197816,['27a']
8220DB001797,McAuley Drive,1797,53.3831278453886,-6.19172134030198,['27a']
8220DB001798,McAuley Road,1798,53.3843839100412,-6.19453950864006,['27a']
8220DB001799,Mask Crescent,1799,53.3830586828386,-6.19665511759699,['27a']
8220DB001800,Lady of Mercy Church,1800,53.3823067907448,-6.1992424717112,['27a']
8220DB001801,Brookwood Ave,1801,53.3823969984415,-6.20224522816102,['27a']
8220DB001802,Cabra Road,1802,53.3613803234428,-6.29454414549559,"['38', '38a', '38b', '38d']"
8220DB001803,Cabra Road,1803,53.3615635987059,-6.29416119396318,"['38', '38a', '38b', '38d']"
8220DB001804,Rosecourt,1804,53.3616973947126,-6.29723603716654,"['38', '38a', '38b', '38d']"
8220DB001805,Dunard,1805,53.3611627039101,-6.29755786085371,"['39', '39a', '39x', '70']"
8220DB001806,Navan Road,1806,53.3629069059108,-6.30264214209812,"['38', '38a', '38b', '38d', '39', '39a', '70']"
8220DB001807,Phoenix Park Avenue,1807,53.37441446431,-6.33926288340452,"['38', '38a', '38b', '38d', '39', '39a', '70']"
8220DB001847,Old Racecourse,1847,53.3729020091403,-6.33392626097365,"['38', '38a', '38b', '38d', '39', '39a', '70']"
8220DB001905,Skreen Road,1905,53.363317546166,-6.30307659409079,"['38', '38a', '38b', '38d', '39', '39a', '70']"
8220DB001906,Old Cabra Road,1906,53.3612007620224,-6.29707553938407,"['39', '39a', '39x', '70']"
8220DB001907,Glenbeigh Road,1907,53.3599049453552,-6.29382178508832,"['39', '39a', '70']"
8220DB001908,Cabra Drive,1908,53.3586907975506,-6.29125607276839,"['39', '39a', '70']"
8220DB001909,Prussia Street,1909,53.3569602631532,-6.28841072316952,"['39', '39a', '39x', '70']"
8220DB001911,Prussia Street,1911,53.3566345096153,-6.28825851915209,"['37', '39', '39a', '39x', '70']"
